,City,Cloudiness,Country,Date,Humidity,Latitude,Longitude,Max Temp,Wind Speed
0,Nikolskoye,75,RU,1619473373,70,59.7035,30.7861,6.0,3.0
1,Avarua,45,CK,1619473373,78,-21.2078,-159.775,27.0,2.06
2,Llanes,100,ES,1619473374,97,43.4198,-4.7549,15.0,0.89
3,Yellowknife,40,CA,1619473242,52,62.456,-114.3525,-12.22,6.17
4,Lüderitz,81,NA,1619473374,87,-26.6481,15.1594,16.06,3.17
5,Hobart,20,AU,1619473108,93,-42.8794,147.3294,8.33,1.54
6,Busselton,100,AU,1619473374,92,-33.65,115.3333,13.89,1.54
7,Parkes,0,AU,1619473374,54,-33.1333,148.1833,11.69,0.97
8,Port Alfred,98,ZA,1619473375,86,-33.5906,26.891,19.28,5.34
9,Bredasdorp,16,ZA,1619473375,87,-34.5322,20.0403,11.0,2.16
10,Fortuna,90,US,1619473375,62,40.5982,-124.1573,14.44,4.12
11,Port Lincoln,98,AU,1619473376,79,-34.7333,135.8667,15.92,2.54
12,Terney,9,RU,1619473376,45,45.0503,136.6092,8.28,1.26
13,Saskylakh,97,RU,1619473376,97,71.9167,114.0833,-16.12,2.02
14,Ust-Tsilma,100,RU,1619473376,99,65.441,52.1498,2.86,0.7
15,Qingyuan,90,CN,1619473377,94,23.7,113.0333,22.78,2.0
16,Butaritari,90,KI,1619473377,75,3.0707,172.7902,28.51,5.78
17,Ushuaia,90,AR,1619473187,87,-54.8,-68.3,7.0,1.54
18,Severo-Kuril'sk,100,RU,1619473377,95,50.6789,156.125,-0.53,9.88
19,Rikitea,74,PF,1619473189,74,-23.1203,-134.9692,25.32,3.88
20,La Reforma,75,MX,1619473377,47,25.0833,-108.05,31.11,4.12
21,Saint George,90,US,1619473378,54,37.1041,-113.5841,14.44,8.75
22,Kiruna,20,SE,1619473343,93,67.8557,20.2251,-3.0,3.09
23,Tautira,40,PF,1619473378,66,-17.7333,-149.15,30.0,5.14
24,Kahului,1,US,1619473378,51,20.8947,-156.47,28.0,3.6
25,Kubrat,66,BG,1619473378,68,43.8,26.5,12.78,4.97
26,Mataura,98,NZ,1619473379,84,-46.1927,168.8643,6.11,2.24
27,Saint Paul Harbor,90,US,1619473379,76,57.79,-152.4072,7.0,5.66
28,Ipameri,37,BR,1619473379,51,-17.7219,-48.1597,22.74,1.74
29,Payo,22,ID,1619473379,93,-3.7508,103.6372,22.06,0.93
30,Nanortalik,100,GL,1619473380,98,60.1432,-45.2371,1.06,4.0
31,La Ronge,100,CA,1619473380,25,55.1001,-105.2842,11.0,4.12
32,Upernavik,57,GL,1619473380,82,72.7868,-56.1549,2.4,1.65
33,Laas,90,IT,1619473380,100,46.6166,10.7002,12.22,2.57
34,Miami,40,US,1619473151,57,25.7743,-80.1937,28.0,6.69
35,Kaitangata,66,NZ,1619473381,81,-46.2817,169.8464,7.22,1.79
36,Kapit,99,MY,1619473381,99,2.0167,112.9333,22.46,0.17
37,Palmer,20,US,1619473381,24,42.1584,-72.3287,13.33,9.26
38,Mar del Plata,0,AR,1619473340,67,-38.0023,-57.5575,16.11,2.57
39,Saquena,49,PE,1619473381,87,-4.6667,-73.5167,26.28,1.25
40,Nome,1,US,1619473382,53,64.5011,-165.4064,8.0,2.26
41,Sørland,40,NO,1619473382,86,67.667,12.6934,0.0,1.54
42,Tiksi,100,RU,1619473382,93,71.6872,128.8694,-8.81,4.73
43,Albany,2,US,1619473321,29,42.6001,-73.9662,12.22,0.89
44,Bani Walid,52,LY,1619473382,32,31.7566,13.9942,21.56,3.52
45,Tuktoyaktuk,1,CA,1619473383,72,69.4541,-133.0374,-13.0,6.69
46,Caravelas,50,BR,1619473383,78,-17.7125,-39.2481,24.9,3.29
47,Kabare,100,CD,1619473383,94,-2.4683,28.8242,16.09,0.82
48,Barrow,1,US,1619473204,79,71.2906,-156.7887,-8.0,8.23
49,Puerto Ayora,40,EC,1619473384,69,-0.7393,-90.3518,28.0,8.23
50,Saddiqabad,0,PK,1619473384,12,28.3062,70.1307,30.44,3.35
51,Cidreira,42,BR,1619473384,69,-30.1811,-50.2056,18.38,4.49
52,Al Bardīyah,1,LY,1619473384,76,31.7561,25.0865,15.71,3.94
53,Punta Arenas,75,CL,1619473306,100,-53.15,-70.9167,7.0,3.6
54,Ca Mau,98,VN,1619473115,86,9.1769,105.15,26.1,1.54
55,Thompson,40,CA,1619473385,46,55.7435,-97.8558,9.0,5.14
56,Leningradskiy,42,RU,1619473385,88,69.3833,178.4167,-1.67,2.32
57,Dehlorān,74,IR,1619473385,13,32.6941,47.2679,31.42,3.32
58,Bethel,1,US,1619473385,20,41.3712,-73.414,15.0,7.2
59,Santiago del Estero,0,AR,1619473184,59,-27.7951,-64.2615,18.76,2.28
60,Kapaa,20,US,1619473386,69,22.0752,-159.319,26.11,5.14
61,Cape Town,75,ZA,1619473322,88,-33.9258,18.4232,17.22,8.23
62,Khatanga,100,RU,1619473386,88,71.9667,102.5,-7.55,6.44
63,Bima,28,ID,1619473386,85,-8.4667,118.7167,22.26,1.86
64,Hithadhoo,10,MV,1619473386,64,-0.6,73.0833,28.0,2.19
65,Clyde River,90,CA,1619473387,100,70.4692,-68.5914,-4.0,1.03
66,Tasiilaq,75,GL,1619473387,75,65.6145,-37.6368,4.0,3.56
67,Bluff,56,NZ,1619473387,84,-46.6,168.3333,6.11,2.24
68,Kavaratti,0,IN,1619473387,74,10.5669,72.642,28.76,3.35
69,Portland,90,US,1619473232,54,45.5234,-122.6762,15.0,1.68
70,Ribeira Grande,100,PT,1619473388,83,38.5167,-28.7,16.12,1.66
71,Hilo,40,US,1619473388,57,19.7297,-155.09,26.0,3.09
72,Vaini,75,TO,1619473388,94,-21.2,-175.2,24.0,4.12
73,Moramanga,100,MG,1619473388,99,-18.9333,48.2,18.01,1.28
74,Chetwayi,40,IN,1619473389,88,10.5333,76.05,27.0,0.98
75,Williston,100,US,1619473389,52,48.147,-103.618,14.44,1.34
76,Millinocket,75,US,1619473389,65,45.6573,-68.7098,4.0,8.75
77,Sola,75,VU,1619473389,83,-13.8833,167.55,28.0,4.13
78,College,75,US,1619473390,32,64.8569,-147.8028,14.0,2.06
79,San Juan,0,AR,1619473210,37,-31.5375,-68.5364,22.5,3.65
80,Vila do Maio,75,CV,1619473390,73,15.1333,-23.2167,22.0,7.2
81,Pak Thong Chai,100,TH,1619473390,94,14.7226,102.0251,23.35,2.13
82,Piterka,100,RU,1619473390,60,50.6803,47.4454,8.85,1.6
83,Pisco,0,PE,1619473391,83,-13.7,-76.2167,20.0,4.12
84,Yulara,0,AU,1619473391,47,-25.2406,130.9889,13.0,4.12
85,Hermanus,60,ZA,1619473391,87,-34.4187,19.2345,15.56,2.76
86,Chui,10,UY,1619473391,71,-33.6971,-53.4616,14.28,3.7
87,Saint-Joseph,75,RE,1619473392,73,-21.3667,55.6167,25.0,4.12
88,Shirokiy,88,RU,1619473392,40,49.758,129.523,9.17,6.86
89,Karpathos,0,GR,1619473392,72,35.507,27.2132,16.0,10.8
90,Lakatoro,100,VU,1619473392,72,-16.0999,167.4164,27.22,4.78
91,Los Llanos de Aridane,90,ES,1619473393,77,28.6585,-17.9182,20.0,3.09
92,Castro,51,BR,1619473393,73,-24.7911,-50.0119,17.12,1.12
93,Bengkulu,85,ID,1619473393,88,-3.8004,102.2655,23.95,1.98
94,Seoul,0,KR,1619473233,82,37.5683,126.9778,11.0,2.57
95,New Norfolk,14,AU,1619473393,85,-42.7826,147.0587,8.33,1.1
96,Ancud,40,CL,1619473394,77,-41.8697,-73.8203,15.0,4.12
97,Lagoa,91,PT,1619473394,87,39.05,-27.9833,15.71,3.96
98,Kayerkan,88,RU,1619473394,87,69.3497,87.7602,-11.69,4.04
99,Alofi,41,NU,1619473394,83,-19.0595,-169.9187,28.0,4.12
100,Codrington,67,AU,1619473395,79,-38.2667,141.9667,12.66,0.86
101,Chuguyevka,42,RU,1619473395,52,44.1653,133.8633,6.68,2.01
102,George Town,20,MY,1619473331,94,5.4112,100.3354,26.0,3.09
103,Chokurdakh,99,RU,1619473395,89,70.6333,147.9167,-5.52,2.19
104,Manuk Mangkaw,100,PH,1619473395,74,4.8,119.85,27.49,0.94
105,Ngunguru,15,NZ,1619473396,86,-35.6167,174.5,16.67,2.24
106,Port Elizabeth,0,ZA,1619473396,88,-33.918,25.5701,18.0,2.57
107,Lufilufi,40,WS,1619473396,74,-13.8745,-171.5986,31.0,6.69
108,Atuona,73,PF,1619473396,76,-9.8,-139.0333,26.51,6.85
109,Provideniya,0,RU,1619473397,69,64.3833,-173.3,2.0,2.0
110,Raglan,90,NZ,1619473397,92,-37.8,174.8833,13.33,0.89
111,Kichera,35,RU,1619473397,76,55.9375,110.0997,-2.6,2.93
112,Waddān,7,LY,1619473397,23,29.1614,16.139,22.56,5.61
113,Huangpi,91,CN,1619473397,100,30.8845,114.3779,15.0,1.0
114,Olesno,77,PL,1619473398,52,50.877,18.4209,3.89,1.6
115,Phang Nga,75,TH,1619473398,100,8.4509,98.5298,28.33,0.51
116,Ponta do Sol,86,PT,1619473398,78,32.6667,-17.1,15.56,1.34
117,Nishihara,75,JP,1619473398,83,26.1842,127.7558,20.0,3.6
118,Kruisfontein,71,ZA,1619473399,86,-34.0033,24.7314,17.22,0.89
119,Afyonkarahisar,0,TR,1619473399,75,38.75,30.6667,4.59,1.35
120,Saint-Pierre,75,RE,1619473399,73,-21.3393,55.4781,25.0,4.12
121,Saravan,75,AM,1619473399,59,39.7196,45.6483,17.0,3.09
122,Guerrero Negro,98,MX,1619473400,56,27.9769,-114.0611,18.21,7.53
123,Santana do Acaraú,100,BR,1619473400,91,-3.4606,-40.2122,24.53,1.88
124,Saint-Philippe,75,RE,1619473400,73,-21.3585,55.7679,25.0,4.12
125,Pak Phanang,93,TH,1619473400,84,8.3511,100.202,25.93,2.01
126,Touros,20,BR,1619473401,78,-5.1989,-35.4608,27.0,4.12
127,Tablas,40,PH,1619473401,94,6.6292,122.1747,24.0,0.51
128,Vila Velha,40,BR,1619473401,78,-20.3297,-40.2925,27.0,1.54
129,Kuvshinovo,13,RU,1619473401,91,57.0295,34.1725,-1.93,2.02
130,Santa Cruz del Sur,35,CU,1619473353,59,20.7147,-77.9956,29.27,4.82
131,Sarakhs,64,IR,1619473402,34,36.5449,61.1577,19.0,1.03
132,Iqaluit,90,CA,1619473402,86,63.7506,-68.5145,-2.0,10.8
133,Jalu,4,LY,1619473402,31,29.0331,21.5482,20.54,2.31
134,Qaanaaq,92,GL,1619473402,70,77.484,-69.3632,4.09,3.25
135,Arman',17,RU,1619473403,79,59.7,150.1667,-6.09,1.54
136,Comodoro Rivadavia,0,AR,1619473403,34,-45.8667,-67.5,20.0,10.8
137,Quixadá,60,BR,1619473403,65,-4.9714,-39.0153,25.98,2.15
138,Kenai,1,US,1619473403,37,60.5544,-151.2583,13.0,4.12
139,Carnarvon,0,AU,1619473404,67,-24.8667,113.6333,17.0,2.57
140,Talnakh,93,RU,1619473404,82,69.4865,88.3972,-12.1,4.05
141,Stornoway,90,GB,1619473404,87,58.2093,-6.3865,8.33,3.09
142,Sucúa,20,EC,1619473404,61,-2.4667,-78.1667,26.0,3.09
143,Vestmanna,75,FO,1619473405,87,62.1564,-7.1664,4.0,11.32
144,Fairbanks,75,US,1619473346,24,64.8378,-147.7164,14.0,2.13
145,Nur-Sultan,40,KZ,1619473405,87,51.1801,71.446,9.0,5.0
146,Kavieng,55,PG,1619473405,72,-2.5744,150.7967,28.32,0.48
147,La Roda,40,ES,1619473347,82,39.2167,-2.15,13.0,3.09
148,Korla,14,CN,1619473405,34,41.7597,86.1469,12.31,2.79
149,Arraial do Cabo,40,BR,1619473406,83,-22.9661,-42.0278,25.0,3.09
150,Vila,96,PT,1619473406,88,42.0304,-8.1588,12.22,0.78
151,Naze,20,JP,1619473406,68,28.3667,129.4833,19.0,4.63
152,Yarim,100,YE,1619473406,82,14.298,44.3779,11.73,0.8
153,Stryn,0,NO,1619473406,48,61.9045,6.7226,5.0,1.54
154,Gurlan,0,UZ,1619473407,36,41.8447,60.3919,17.0,2.06
155,Salalah,40,OM,1619473178,74,17.0151,54.0924,28.0,3.09
156,Kyabé,24,TD,1619473407,31,9.4515,18.9449,32.23,1.58
157,Honiara,96,SB,1619473407,73,-9.4333,159.95,28.42,0.72
158,Vuktyl,49,RU,1619473407,87,63.8567,57.3094,0.48,2.27
159,Tonekābon,75,IR,1619473408,88,36.8163,50.8738,18.0,1.63
160,Sabha,24,LY,1619473408,18,27.0377,14.4283,26.82,4.42
161,Morgan City,1,US,1619473408,61,29.6994,-91.2068,27.78,3.6
162,Athabasca,100,CA,1619473408,52,54.7169,-113.2854,8.0,5.14
163,Burnie,8,AU,1619473409,78,-41.0667,145.9167,10.56,1.79
164,Isangel,40,VU,1619473409,83,-19.55,169.2667,26.0,2.57
165,Puerto Cabello,91,VE,1619473409,87,10.4731,-68.0125,0.0,3.9
166,Cayenne,90,GF,1619473320,94,4.9333,-52.3333,25.56,2.57
167,Lompoc,1,US,1619473409,51,34.6391,-120.4579,16.0,5.66
168,Coquimbo,20,CL,1619473396,72,-29.9533,-71.3436,17.0,3.6
169,Yaan,66,NG,1619473410,61,7.3833,8.5667,28.45,3.07
170,Oddur,98,SO,1619473410,63,4.1213,43.8894,26.34,1.22
171,Camabatela,87,AO,1619473410,94,-8.1881,15.375,17.54,0.52
172,Tuatapere,95,NZ,1619473410,84,-46.1333,167.6833,6.11,2.24
173,Brigantine,1,US,1619473411,25,39.4101,-74.3646,17.0,7.2
174,Balikpapan,95,ID,1619473229,87,-1.2675,116.8289,25.13,2.23
175,Andros Town,20,BS,1619473411,74,24.7,-77.7667,27.0,6.17
176,Bogorodskoye,84,RU,1619473411,75,56.55,37.8833,0.8,0.33
177,Piteå,90,SE,1619473411,60,65.3172,21.4794,2.0,2.57
178,Nuuk,90,GL,1619473382,100,64.1835,-51.7216,2.0,3.09
179,Inuvik,19,CA,1619473412,49,68.3499,-133.7218,-7.0,4.12
180,San Ramon,40,US,1619473357,41,37.7799,-121.978,17.78,3.6
181,Mahébourg,75,MU,1619473412,78,-20.4081,57.7,26.0,5.66
182,El Ciruelo,20,HN,1619473412,62,15.3,-88.5,33.0,3.09
183,Jamestown,90,US,1619473412,29,42.097,-79.2353,11.11,2.57
184,Airai,72,TL,1619473413,71,-8.9266,125.4092,12.92,0.87
185,Norman Wells,75,CA,1619473413,45,65.282,-126.8329,-9.0,3.09
186,Beloha,7,MG,1619473413,72,-25.1667,45.05,22.64,2.82
187,Abaza,99,RU,1619473413,77,52.655,90.0928,2.18,2.13
188,Gizo Government Station,99,SB,1619473414,75,-8.103,156.8419,28.67,3.96
189,Masallātah,70,LY,1619473414,48,32.6167,14.0,20.45,10.73
190,Wanning,100,CN,1619473414,88,18.8003,110.3967,25.28,2.08
191,Maceió,0,BR,1619473414,83,-9.6658,-35.7353,26.0,3.09
192,Dikson,100,RU,1619473415,98,73.5069,80.5464,-0.12,7.91
193,Havre-St-Pierre,90,CA,1619473415,93,50.2334,-63.5986,4.0,14.4
194,Northam,81,GB,1619473415,49,51.0333,-4.2167,6.67,0.39
195,Kabin Buri,100,TH,1619473415,100,13.9511,101.7177,28.33,0.39
196,Paciran,66,ID,1619473415,83,-6.8767,112.3761,25.24,2.98
197,Husavik,0,IS,1619473416,80,66.0449,-17.3389,2.0,2.06
198,Ixtapa,75,MX,1619473416,74,20.7,-105.2,28.0,8.23
199,Aklavik,100,CA,1619473416,49,68.2191,-135.0107,-7.0,4.12
200,Hong Kong,100,HK,1619473416,89,22.2855,114.1577,23.33,7.74
201,Karatau,2,KZ,1619473417,57,43.1667,70.4667,10.7,0.3
202,Charcas,100,MX,1619473417,18,23.1333,-101.1167,28.76,1.73
203,Baykit,24,RU,1619473417,94,61.67,96.37,-6.46,1.06
204,Yelovo,26,RU,1619473417,70,57.0538,54.9207,3.4,4.92
205,Mvuma,48,ZW,1619473418,42,-19.2792,30.5283,17.06,3.2
206,Cherskiy,52,RU,1619473418,85,68.75,161.3,-7.17,3.58
207,Awjilah,5,LY,1619473418,31,29.1081,21.2869,20.79,2.58
208,Ilulissat,75,GL,1619473418,43,69.2167,-51.1,10.0,8.75
209,Texarkana,1,US,1619473419,41,33.4251,-94.0477,27.0,4.63
210,Gazli,0,UZ,1619473419,24,40.1333,63.45,20.89,6.28
211,Isla Mujeres,75,MX,1619473419,62,21.2311,-86.731,30.0,5.14
212,Saldanha,77,ZA,1619473419,94,-33.0117,17.9442,16.0,8.75
213,Gamboma,21,CG,1619473420,75,-1.8764,15.8644,25.29,1.26
214,Amuntai,80,ID,1619473420,99,-2.4177,115.2494,22.64,0.39
215,Lar,0,IN,1619473420,12,26.2039,83.9717,27.61,2.45
216,Gannan,38,CN,1619473420,35,47.9147,123.5031,10.9,7.25
217,Oranjemund,3,NA,1619473421,89,-28.55,16.4333,15.7,2.71
218,Sol'vychegodsk,100,RU,1619473421,94,61.3305,46.9156,3.86,2.52
219,Pirajuí,0,BR,1619473421,57,-21.9986,-49.4572,26.0,1.54
220,Lubyany,0,RU,1619473421,48,56.0378,51.4,4.0,3.0
221,Bay City,1,US,1619473421,43,43.5945,-83.8889,11.0,5.14
222,Yokadouma,74,CM,1619473422,71,3.5167,15.05,24.51,0.7
223,Agüimes,40,ES,1619473422,68,27.9054,-15.4461,20.0,4.63
224,Akhtanizovskaya,7,RU,1619473422,87,45.32,37.1,4.0,4.0
225,Nālūt,53,LY,1619473422,19,30.3333,10.85,27.54,4.84
226,Garhi Khairo,1,PK,1619473423,19,28.0606,67.9803,31.07,4.33
227,Mackay,57,AU,1619473423,94,-21.15,149.2,17.22,2.06
228,Boyolangu,43,ID,1619473423,92,-8.1181,111.8935,23.45,0.84
229,Lebu,4,CL,1619473424,81,-37.6167,-73.65,13.44,4.81
230,Klaksvík,75,FO,1619473424,87,62.2266,-6.589,4.0,11.32
231,Davila,75,PH,1619473424,78,18.4726,120.5763,24.0,1.54
232,Hulan,0,CN,1619473424,58,45.9833,126.6,13.0,9.0
233,Bonavista,100,CA,1619473424,61,48.6499,-53.1147,6.0,4.63
234,Jacqueville,20,CI,1619473425,89,5.2052,-4.4146,29.0,3.6
235,Itoman,75,JP,1619473425,83,26.1247,127.6694,20.0,3.6
236,Geraldton,31,AU,1619473425,67,-28.7667,114.6,15.0,4.63
237,Dudinka,98,RU,1619473425,88,69.4058,86.1778,-6.94,7.95
238,Miles City,90,US,1619473426,54,46.4083,-105.8406,12.0,2.57
239,Kysyl-Syr,100,RU,1619473426,91,63.8986,122.7617,-9.61,3.82
240,Farafangana,91,MG,1619473426,89,-22.8167,47.8333,22.42,1.59
241,Constitución,0,CL,1619473426,69,-35.3333,-72.4167,15.52,5.42
242,Sitka,1,US,1619473427,76,57.0531,-135.33,10.0,3.09
243,Yeppoon,2,AU,1619473427,68,-23.1333,150.7333,20.0,3.09
244,Faanui,91,PF,1619473427,67,-16.4833,-151.75,27.27,2.16
245,Kailua,40,US,1619473321,57,21.4022,-157.7394,27.78,3.6
246,Puerto del Rosario,20,ES,1619473371,68,28.5004,-13.8627,20.0,3.09
247,Culebra,20,PR,1619473427,54,18.303,-65.301,29.0,5.66
248,East London,100,ZA,1619473428,61,-33.0153,27.9116,21.04,1.44
249,Mahon,20,ES,1619473428,82,39.8885,4.2658,15.0,5.66
250,Kloulklubed,97,PW,1619473428,79,7.0419,134.2556,27.21,3.06
251,Corpus Christi,90,US,1619473156,69,27.8006,-97.3964,27.0,6.69
252,Laguna,40,US,1619473415,34,38.421,-121.4238,20.0,3.09
253,Broome,1,US,1619473428,29,42.2506,-75.833,10.0,4.63
254,Pemba,75,MZ,1619473429,94,-12.974,40.5178,25.0,3.09
255,Aktas,0,KZ,1619473429,93,49.7789,72.9608,3.0,3.0
256,Beisfjord,40,NO,1619473429,100,68.3751,17.5988,-1.0,3.09
257,Karaton,56,ID,1619473429,83,-6.3424,106.1045,26.67,2.57
258,Arlit,79,NE,1619473430,9,18.7369,7.3853,34.08,4.6
259,San Andrés,90,CO,1619473368,66,12.5847,-81.7006,30.0,5.66
260,Lavrentiya,99,RU,1619473430,83,65.5833,-171.0,-0.27,1.06
261,Manaus,75,BR,1619473341,100,-3.1019,-60.025,23.0,1.03
262,Cap-aux-Meules,100,CA,1619473430,100,47.3821,-61.8597,5.0,3.6
263,Tura,89,IN,1619473430,37,25.5198,90.2201,25.16,2.34
264,Souillac,75,MU,1619473431,78,-20.5167,57.5167,26.0,5.66
265,Bambous Virieux,75,MU,1619473431,78,-20.3428,57.7575,26.0,5.66
266,Sanmenxia,100,CN,1619473431,83,34.7747,111.1814,12.41,1.17
267,Jumla,0,NP,1619473431,54,29.2747,82.1838,8.48,1.93
268,Stephenville,1,US,1619473300,39,32.2207,-98.2023,28.0,8.23
269,Ormara,29,PK,1619473432,81,25.2088,64.6357,26.99,2.01
270,Turbat,11,PK,1619473432,29,26.0023,63.044,30.75,1.29
271,Esperance,100,AU,1619473432,39,-33.8667,121.9,19.0,7.72
272,Havøysund,75,NO,1619473432,86,70.9963,24.6622,0.0,3.6
273,Topales,0,RO,1619473433,81,44.55,28.05,9.0,5.14
274,Saint Anthony,90,US,1619473150,71,45.0205,-93.218,9.0,5.14
275,Potosí,0,BO,1619473433,23,-19.5836,-65.7531,8.86,1.91
276,Kuito,93,AO,1619473433,61,-12.3833,16.9333,17.85,0.46
277,Hobyo,61,SO,1619473433,76,5.3505,48.5268,28.01,3.76
278,Quelimane,20,MZ,1619473434,89,-17.8786,36.8883,26.0,2.06
279,Pangnirtung,90,CA,1619473434,87,66.1451,-65.7125,2.0,1.03
280,Timrå,94,SE,1619473434,80,62.487,17.3257,-1.11,2.06
281,Helmstedt,52,DE,1619473434,60,52.2279,11.0099,3.89,2.06
282,Yar-Sale,100,RU,1619473435,98,66.8333,70.8333,0.79,6.0
283,Turan,40,VN,1619473435,89,16.0678,108.2208,27.0,1.03
284,Bouguenais,0,FR,1619473435,47,47.1776,-1.6214,13.0,3.6
285,Baker City,90,US,1619473435,70,44.7749,-117.8344,9.44,4.12
286,Esso,100,RU,1619473436,93,55.9333,158.7,-2.59,2.04
287,Glace Bay,90,CA,1619473436,93,46.1969,-59.957,8.89,4.12
288,Henties Bay,16,NA,1619473436,88,-22.116,14.2845,16.67,1.79
289,Beira,20,MZ,1619473341,88,-19.8436,34.8389,25.0,4.24
290,Maţāy,0,EG,1619473436,56,28.419,30.7792,19.06,6.84
291,Port Keats,59,AU,1619473437,85,-14.25,129.55,24.2,2.49
292,Turinsk,11,RU,1619473437,61,58.0458,63.696,4.99,5.83
293,Caxito,75,AO,1619473437,94,-8.5785,13.6643,24.0,1.03
294,Tadine,100,NC,1619473350,70,-21.55,167.8833,23.45,8.67
295,Aquin,26,HT,1619473437,71,18.2833,-73.4,26.9,0.87
296,Katherine,100,AU,1619473438,88,-14.4667,132.2667,23.0,2.06
297,Arrondissement de Gap,100,FR,1619473438,88,44.6667,6.0,11.11,1.6
298,Valsād,38,IN,1619473438,75,20.6333,72.9333,27.9,3.96
299,Maracás,83,BR,1619473438,67,-13.4411,-40.4308,21.51,3.68
300,Natal,20,BR,1619473439,74,-5.795,-35.2094,28.0,5.14
301,Byron Bay,76,AU,1619473439,100,-28.65,153.6167,15.0,0.51
302,Risør,0,NO,1619473439,75,58.7206,9.2342,3.33,2.41
303,Padang,20,ID,1619473439,94,-0.9492,100.3543,24.0,0.51
304,Asău,100,RO,1619473440,61,46.4333,26.4,5.0,1.51
305,Bairiki Village,20,KI,1619473440,79,1.3292,172.9752,29.0,2.57
306,Tabou,41,CI,1619473440,85,4.423,-7.3528,27.02,3.57
307,Moose Factory,20,CA,1619473440,24,51.2585,-80.6094,12.0,4.12
308,Mīnāb,0,IR,1619473441,64,27.1467,57.0801,24.0,3.09
309,Lerwick,90,GB,1619473441,81,60.1545,-1.1494,7.0,6.17
310,Alice Springs,0,AU,1619473441,65,-23.7,133.8833,7.0,2.06
311,Ober-Ramstadt,52,DE,1619473441,43,49.8336,8.7519,8.89,4.14
312,Longyearbyen,75,SJ,1619473435,63,78.2186,15.6401,-6.0,5.66
313,Paamiut,82,GL,1619473441,90,61.994,-49.6678,1.5,2.84
314,Salinópolis,99,BR,1619473442,81,-0.6136,-47.3561,26.39,4.3
315,Farsund,7,NO,1619473442,74,58.0948,6.8047,4.44,0.68
316,Magnor,0,SE,1619473442,55,59.9511,12.1996,1.67,2.06
317,Tromsø,75,NO,1619473377,74,69.6496,18.957,0.0,2.06
318,Vardø,20,NO,1619473442,80,70.3705,31.1107,-2.0,4.63
319,Banjar,40,ID,1619473443,83,-8.19,114.9675,27.0,4.12
320,El Batey,40,DO,1619473222,70,19.7667,-70.5167,30.0,4.12
321,Ridgecrest,20,US,1619473280,20,35.6225,-117.6709,22.0,7.72
322,Dera Bugti,0,PK,1619473443,15,29.0307,69.151,28.44,0.55
323,Rio Grande,89,BR,1619473443,79,-32.035,-52.0986,16.67,4.62
324,Bukachacha,98,RU,1619473444,86,52.9833,116.9167,-0.36,4.44
325,Ouango,7,CF,1619473444,85,4.3133,22.5552,22.07,1.13
326,Lubbock,90,US,1619473444,6,33.6001,-101.8338,31.0,12.35
327,Lima Duarte,20,BR,1619473444,83,-21.8425,-43.7931,21.0,2.06
328,Tiznit Province,43,MA,1619473445,79,29.5833,-9.5,14.7,1.74
329,Gonbad-e Kāvūs,0,IR,1619473445,82,37.25,55.1672,19.0,2.06
330,Saurimo,98,AO,1619473445,85,-9.6608,20.3916,19.79,0.86
331,Santiago,0,CL,1619473314,23,-33.4569,-70.6483,25.0,2.06
332,Te Anau,76,NZ,1619473445,85,-45.4167,167.7167,4.66,0.3
333,Roald,100,NO,1619473446,81,62.5833,6.1333,4.0,4.63
334,Dingle,61,PH,1619473446,87,10.9995,122.6711,23.91,2.79
335,Sioux Lookout,90,CA,1619473446,75,50.1001,-91.917,3.0,3.09
336,Inírida,96,CO,1619473446,89,3.8653,-67.9239,26.74,0.3
337,Jardim,0,BR,1619473399,51,-21.4803,-56.1381,20.55,2.55
338,Skjervøy,95,NO,1619473447,59,70.0311,20.9714,2.27,4.34
339,Urucará,100,BR,1619473447,97,-2.5364,-57.76,24.12,1.35
340,Santa Isabel,90,BR,1619473447,100,-23.3156,-46.2214,21.0,1.03
341,Leh,9,IN,1619473447,36,34.1667,77.5833,0.35,1.36
342,Goderich,100,CA,1619473447,65,43.7501,-81.7165,4.0,0.51
343,Bam,51,IR,1619473448,20,29.106,58.357,25.33,3.41
344,San Jose,40,US,1619473334,44,37.3394,-121.895,18.33,3.6
345,Ossora,100,RU,1619473448,98,59.2353,163.0719,-0.04,1.24
346,Abhā,0,SA,1619473448,82,18.2164,42.5053,15.0,1.54
347,Havelock,20,US,1619473448,49,34.8791,-76.9013,22.0,2.57
348,Teahupoo,40,PF,1619473449,66,-17.8333,-149.2667,30.0,5.14
349,Hasaki,20,JP,1619473449,66,35.7333,140.8333,8.0,2.06
350,Kambove,99,CD,1619473449,94,-10.8764,26.5969,16.31,1.01
351,Namatanai,60,PG,1619473449,72,-3.6667,152.4333,28.31,1.49
352,Itarema,69,BR,1619473450,78,-2.9248,-39.9167,26.81,5.83
353,Sālūmbar,0,IN,1619473450,8,24.1333,74.05,28.7,2.45
354,Vereshchagino,90,RU,1619473450,80,58.0789,54.6557,2.77,5.77
355,Matara,95,LK,1619473450,88,5.9485,80.5353,25.34,1.37
356,Deputatsky,100,RU,1619473451,92,69.3,139.9,-3.44,0.78
357,Naryan-Mar,100,RU,1619473451,97,67.6713,53.087,2.4,2.0
358,Honningsvåg,75,NO,1619473451,93,70.9821,25.9704,0.0,5.66
359,Santa Cruz del Norte,20,CU,1619473451,62,23.1539,-81.9236,31.0,5.66
360,Zeulenroda,76,DE,1619473452,57,50.65,11.9833,2.22,0.45
361,Pampa,1,US,1619473452,13,35.5362,-100.9599,32.0,11.32
362,Boysun,0,UZ,1619473452,25,38.2061,67.1986,17.27,2.99
363,Roseburg,90,US,1619473245,41,43.2165,-123.3417,14.44,2.57
364,San Julián,100,MX,1619473452,50,21.0167,-102.1667,32.78,3.39
365,Porto-Novo,20,BJ,1619473453,74,6.4965,2.6036,30.0,5.66
366,Bjørnevatn,20,NO,1619473453,80,69.6672,29.9847,-1.0,2.06
367,Senneterre,20,CA,1619473453,31,48.3835,-77.2328,8.0,4.63
368,Kristinehamn,90,SE,1619473453,65,59.3098,14.1081,4.0,2.06
369,Khowst,81,AF,1619473454,36,33.3833,69.8833,20.31,0.9
370,Şırnak,53,TR,1619473454,61,37.5228,42.4594,14.08,2.16
371,Oktyabr'skoye,100,RU,1619473454,100,43.0645,44.7417,11.0,3.0
372,Bandarbeyla,85,SO,1619473404,73,9.4942,50.8122,28.27,2.43
373,Philadelphia,20,US,1619473194,21,39.9523,-75.1638,17.22,6.17
374,Karratha,0,AU,1619473454,36,-20.7377,116.8463,23.49,3.92
375,Batagay-Alyta,100,RU,1619473455,96,67.8006,130.4114,-2.01,2.42
376,Quaraí,0,BR,1619473455,64,-30.3875,-56.4514,15.16,2.98
377,Moree,0,AU,1619473455,82,-29.4667,149.85,11.0,4.12
378,Alyangula,40,AU,1619473455,100,-13.8483,136.4192,25.0,5.45
379,Puerto Nariño,20,CO,1619473456,62,-3.7703,-70.3831,32.0,2.06
380,Vestmannaeyjar,9,IS,1619473456,89,63.4427,-20.2734,7.27,4.21
381,Menongue,87,AO,1619473456,51,-14.6585,17.691,19.89,1.61
382,Lloydminster,75,CA,1619473254,17,53.2835,-110.0016,14.0,6.69
383,Bilibino,100,RU,1619473456,88,68.0546,166.4372,-4.87,1.39
384,Pacific Grove,1,US,1619473219,76,36.6177,-121.9166,15.0,6.57
385,Praia,75,CV,1619473456,73,14.9215,-23.5087,22.0,7.2
386,Coronado,75,US,1619473457,77,32.6859,-117.1831,17.0,5.14
387,Audru,100,EE,1619473457,94,58.4086,24.3739,3.89,2.24
388,Muisne,100,EC,1619473457,86,0.6,-80.0333,25.4,2.73
389,San Policarpo,68,PH,1619473380,81,12.1791,125.5072,25.69,3.98
390,Teya,40,RU,1619473457,97,60.3778,92.6267,-1.64,1.21
391,Simdega,7,IN,1619473458,11,22.6167,84.5167,23.14,0.72
392,Ostrovnoy,100,RU,1619473458,72,68.0531,39.5131,-1.07,7.26
393,Båtsfjord,75,NO,1619473458,86,70.6345,29.7185,0.0,5.14
394,Poum,45,NC,1619473458,73,-20.2333,164.0167,24.13,9.05
395,Horlivka,73,UA,1619473459,82,48.347,38.0542,2.33,5.82
396,San Patricio,90,US,1619473459,69,28.017,-97.5169,28.33,6.69
397,Dwārka,0,IN,1619473459,77,22.2394,68.9678,26.89,4.04
398,Katsuura,75,JP,1619473459,66,35.1333,140.3,12.0,0.51
399,Nabire,73,ID,1619473460,82,-3.3667,135.4833,25.06,1.06
400,Baruun-Urt,20,MN,1619473460,51,46.6806,113.2792,-0.35,8.38
401,Normandin,99,CA,1619473460,80,48.8333,-72.5321,1.0,7.2
402,Anchorage,1,US,1619473460,28,61.2181,-149.9003,13.0,1.74
403,Praia da Vitória,75,PT,1619473461,88,38.7333,-27.0667,16.11,3.54
404,Vila Franca do Campo,75,PT,1619473461,77,37.7167,-25.4333,16.0,4.12
405,Puerto Ayacucho,72,VE,1619473461,60,5.6639,-67.6236,31.22,0.48
406,Zyryanovsk,100,KZ,1619473461,72,49.7386,84.2719,3.7,1.59
407,Ulladulla,1,AU,1619473462,94,-35.35,150.4667,12.78,3.6
408,Lorengau,95,PG,1619473462,74,-2.0226,147.2712,27.96,0.42
409,Ambunti,62,PG,1619473462,97,-4.2365,142.8448,24.13,0.55
410,The Valley,20,AI,1619473170,69,18.217,-63.0578,28.0,6.17
411,Heraclea,66,TR,1619473462,76,37.5133,34.0467,10.66,3.75
412,Omsukchan,11,RU,1619473463,84,62.5333,155.8,-8.99,2.13
413,Garoowe,94,SO,1619473463,62,8.4054,48.4845,26.5,1.12
414,Rafai,27,CF,1619473344,85,4.95,23.9167,21.57,0.64
415,Olinda,40,BR,1619473463,74,-8.0089,-34.8553,27.0,3.09
416,Le Port,90,RE,1619473463,83,-20.9373,55.2919,24.0,7.72
417,Kyshtovka,7,RU,1619473464,75,56.555,76.6271,3.99,2.87
418,Fort Nelson,90,CA,1619473464,63,58.8053,-122.7002,-3.0,4.63
419,Buala,92,SB,1619473464,77,-8.145,159.5921,28.43,2.41
420,Gadu,96,PH,1619473464,80,17.6292,121.6105,22.91,1.04
421,Chapais,90,CA,1619473465,69,49.7834,-74.8492,2.0,7.2
422,Carolina,40,PR,1619473465,58,18.3808,-65.9574,29.0,6.17
423,Pulandian,90,CN,1619473465,100,39.3953,121.9669,11.0,1.0
424,Sobolevo,12,RU,1619473465,76,54.4299,31.8996,-0.76,2.17
425,Evensk,20,RU,1619473466,83,61.95,159.2333,-8.12,0.64
426,Rock Sound,0,BS,1619473466,76,24.9,-76.2,25.82,6.5
427,Tokoroa,99,NZ,1619473466,82,-38.2333,175.8667,10.56,3.13
428,Port Moresby,40,PG,1619473466,100,-9.4431,147.1797,24.0,2.06
429,Kuusamo,0,FI,1619473466,74,65.9667,29.1833,-3.0,1.03
430,Jiuquan,73,CN,1619473467,23,39.7432,98.5174,4.09,0.97
431,Champerico,40,GT,1619473467,66,14.3,-91.9167,32.0,4.12
432,Chingola,100,ZM,1619473467,88,-12.529,27.8838,17.6,1.04
433,Shingū,74,JP,1619473467,64,33.7333,135.9833,13.01,2.0
434,Grodków,67,PL,1619473468,52,50.6984,17.3845,3.33,0.95
435,Vanino,24,RU,1619473468,48,49.0869,140.2543,5.29,1.16
436,Shimoda,98,JP,1619473468,65,34.6667,138.95,12.78,0.45
437,Mogocha,78,RU,1619473468,78,53.7333,119.7667,4.54,1.64
438,Srandakan,14,ID,1619473469,85,-7.9386,110.2506,23.79,1.87
439,Nioro,25,GM,1619473469,36,13.35,-15.75,28.42,5.41
440,Kiryat Gat,62,IL,1619473469,100,31.61,34.7642,18.33,2.52
441,Birobidzhan,100,RU,1619473469,42,48.8,132.95,7.86,2.1
442,Flin Flon,20,CA,1619473470,26,54.7682,-101.865,12.0,7.72
443,Eureka,100,US,1619473470,61,40.8021,-124.1637,14.44,1.34
444,Turaif,0,SA,1619473470,45,31.6725,38.6637,17.0,7.2
445,Richards Bay,31,ZA,1619473470,91,-28.783,32.0377,18.73,2.51
446,Ordzhonīkīdze,100,KZ,1619473470,95,52.4411,61.7408,8.36,1.84
447,Algiers,20,DZ,1619473220,82,36.7525,3.042,16.0,1.03
448,Scottsbluff,1,US,1619473471,15,41.8666,-103.6672,25.0,4.32
449,Raudeberg,94,NO,1619473471,77,61.9875,5.1352,2.78,1.79
450,Mossamedes,1,AO,1619473471,73,-15.1961,12.1522,24.07,3.76
451,Ola,9,RU,1619473471,76,59.5833,151.2833,-6.81,1.02
452,Bintulu,40,MY,1619473472,94,3.1667,113.0333,25.0,1.54
453,Samarai,94,PG,1619473472,78,-10.6167,150.6667,27.52,1.46
454,Cunha,40,BR,1619473472,78,-23.0744,-44.9597,23.0,1.03
455,Delījān,99,IR,1619473472,34,33.9905,50.6838,19.93,1.41
456,Rapid Valley,75,US,1619473473,48,44.0625,-103.1463,17.0,3.6
457,Rawson,18,AR,1619473473,35,-43.3002,-65.1023,19.51,2.74
458,Port Hedland,0,AU,1619473473,37,-20.3167,118.5667,20.0,4.63
459,San Miguel de Tucumán,75,AR,1619473473,56,-26.8241,-65.2226,22.0,2.06
460,Tutóia,99,BR,1619473474,80,-2.7619,-42.2744,26.22,3.59
461,Gboko,62,NG,1619473474,72,7.3179,8.9951,26.07,3.12
462,Ende,16,ID,1619473474,74,-8.8432,121.6623,23.18,1.63
463,Pokhara,0,NP,1619473474,22,28.2333,83.9833,21.49,3.23
464,Ayagoz,97,KZ,1619473475,39,47.9714,80.4392,8.01,1.35
465,Tapes,26,BR,1619473475,62,-30.6733,-51.3958,18.5,5.67
466,São Filipe,7,CV,1619473475,76,14.8961,-24.4956,22.39,4.29
467,Casablanca,40,MA,1619473473,82,33.5928,-7.6192,20.0,4.12
468,Pevek,99,RU,1619473475,90,69.7008,170.3133,-5.85,2.03
469,Tallahassee,40,US,1619473259,37,30.4383,-84.2807,29.0,3.09
470,Viljoenskroon,100,ZA,1619473476,29,-27.2084,26.9485,15.01,1.97
471,West Bay,20,KY,1619473476,74,19.3667,-81.4167,30.0,4.63
472,Jizan,20,SA,1619473476,66,17.3333,42.6667,31.0,1.57
473,Kaoma,20,ZM,1619473476,75,-14.7833,24.8,16.86,0.69
474,San Quintín,100,MX,1619473476,64,30.4833,-115.95,15.97,7.16
475,Sechura,27,PE,1619473477,60,-5.5569,-80.8222,25.23,7.58
476,Vao,67,NC,1619473467,65,-22.6667,167.4833,23.13,9.17
477,Boa Vista,75,BR,1619473477,78,2.8197,-60.6733,28.0,2.57
478,Logroño,90,ES,1619473477,82,42.4667,-2.45,13.89,1.03
479,Sakakah,10,SA,1619473477,12,29.9697,40.2064,27.0,5.14
480,Wexford,0,IE,1619473478,87,52.3342,-6.4575,8.89,0.51
481,Bathsheba,40,BB,1619473478,57,13.2167,-59.5167,28.0,7.2
482,Bay Roberts,100,CA,1619473478,66,47.5999,-53.2648,6.67,3.58
483,Thunder Bay,90,CA,1619473479,93,48.4001,-89.3168,2.0,6.17
484,Bijie,100,CN,1619473479,91,27.3125,105.2942,12.2,2.34
485,Frontera,97,MX,1619473479,10,26.9333,-101.45,38.35,4.47
486,Meadow Lake,75,US,1619473479,6,34.8014,-106.5436,27.22,10.8
487,Morondava,44,MG,1619473480,76,-20.2833,44.2833,25.61,3.39
488,Kangaatsiaq,100,GL,1619473480,93,68.3065,-53.4641,0.41,11.48
489,Sarh,0,TD,1619473480,51,9.1429,18.3923,31.0,1.14
490,Jesús Carranza,8,MX,1619473480,25,17.4333,-95.0333,39.81,3.91
491,Hamilton,1,US,1619472930,31,39.1834,-84.5333,23.33,2.57
492,Kanniyākumāri,25,IN,1619473481,78,8.0833,77.5667,28.21,4.48
493,Half Moon Bay,1,US,1619473384,76,37.4636,-122.4286,16.67,5.66
494,Kalmunai,27,LK,1619473481,84,7.4167,81.8167,25.77,3.7
495,Yurimaguas,40,PE,1619473481,74,-5.9,-76.0833,29.0,2.06
496,Banyo,77,CM,1619473481,65,6.75,11.8167,22.66,1.58
497,Grindavik,0,IS,1619473482,75,63.8424,-22.4338,6.0,2.06
498,Kapenguria,80,KE,1619473482,85,1.2511,35.0895,13.94,0.43
499,Luganville,85,VU,1619473482,76,-15.5333,167.1667,27.21,3.26
500,Coihueco,0,CL,1619473482,43,-36.6167,-71.8333,21.0,5.14
501,Sindou,93,BF,1619473483,52,10.6667,-5.1667,28.73,1.27
502,Nyurba,97,RU,1619473460,84,63.2842,118.3319,-9.08,4.2
503,Jagatsinghapur,75,IN,1619473483,89,20.2667,86.1667,28.0,4.63
504,Chepareria,83,KE,1619473483,85,1.3077,35.2039,16.02,0.8
505,Konin,7,PL,1619473279,78,52.2234,18.2512,0.56,1.89
506,Nichinan,40,JP,1619473483,87,31.6,131.3667,9.0,3.09
507,Wilmington,1,US,1619473310,38,34.2257,-77.9447,23.0,3.6
508,Meulaboh,99,ID,1619473484,89,4.1363,96.1285,24.83,1.73
509,Agua Buena,20,PA,1619473484,51,7.8167,-80.4,32.0,6.69
510,Narasannapeta,9,IN,1619473484,85,18.4167,84.05,25.56,3.17
511,Akasztó,0,HU,1619473484,50,46.6917,19.2042,10.0,1.03
512,San Cristobal,40,VE,1619473485,58,7.7669,-72.225,31.0,6.17
513,Mindelo,75,CV,1619473485,68,16.8901,-24.9804,22.0,9.77
514,Hongjiang,100,CN,1619473485,98,27.11,109.9956,15.45,1.35
515,Speightstown,40,BB,1619473485,57,13.25,-59.65,28.0,7.2
516,Alta Floresta,100,BR,1619473485,89,-9.8756,-56.0861,23.72,1.36
517,Katobu,6,ID,1619473486,91,-4.9408,122.5276,23.2,1.46
518,Peru,1,US,1619473486,33,40.7537,-86.0689,23.33,8.23
519,Iracoubo,100,GF,1619473486,89,5.4802,-53.2011,25.04,4.92
520,Cabra,100,ES,1619473401,80,37.4725,-4.4421,15.0,1.28
521,Biguaçu,0,BR,1619473486,64,-27.4942,-48.6556,22.0,4.12
522,Vanavara,12,RU,1619473487,94,60.34,102.2797,-9.39,1.09
523,North Bend,90,US,1619473487,71,43.4065,-124.2243,12.78,6.69
524,Avera,1,US,1619473487,38,33.194,-82.5271,25.0,2.57
525,Bereda,58,ES,1619473487,100,43.2686,-7.5406,11.11,2.24
526,Flinders,1,AU,1619473488,95,-34.5833,150.8552,12.22,0.45
527,Środa Wielkopolska,0,PL,1619473488,74,52.2284,17.2762,2.22,0.51
528,Dandong,100,CN,1619473488,96,40.1292,124.3947,10.02,3.66
529,Solnechnyy,79,RU,1619473488,54,50.7214,136.6319,6.19,2.26
530,Yueyang,99,CN,1619473489,95,29.3333,113.0919,14.24,1.36
531,Teocaltiche,75,MX,1619473489,12,21.4333,-102.5833,31.0,7.72
532,Bandiagara,0,ML,1619473489,20,14.3501,-3.6104,35.0,3.09
533,Orodara,0,BF,1619473489,55,10.9492,-4.9342,31.0,1.03
534,Saint-François,0,FR,1619473489,76,46.4154,3.9054,12.0,1.18
535,Lampang,100,TH,1619473490,99,18.3333,99.5,27.22,0.54
536,Xining,89,CN,1619473490,51,36.6167,101.7667,3.17,1.6
537,Sambava,60,MG,1619473464,90,-14.2667,50.1667,23.88,3.66
538,Vytegra,100,RU,1619473490,98,61.0064,36.4481,1.54,2.84
539,Araripina,60,BR,1619473490,72,-7.5761,-40.4983,22.61,1.67
540,Zhangye,84,CN,1619473491,23,38.9342,100.4517,4.81,3.85
541,Măieru,100,RO,1619473491,73,47.4,24.75,1.67,1.22
542,Manjacaze,0,MZ,1619473491,96,-24.7117,33.8828,18.65,2.86
543,Vostok,15,RU,1619473491,38,46.4856,135.8833,6.09,1.51
544,Garden City,75,US,1619473436,41,42.3256,-83.331,13.33,5.14
545,Bhola District,12,BD,1619473492,81,22.6833,90.65,26.51,2.36
546,Umluj,0,SA,1619473492,74,25.0213,37.2685,25.49,2.44
547,Mezhdurechensk,90,RU,1619473492,92,53.6942,88.0603,1.35,1.87
548,Pombas,75,CV,1619473492,68,17.1503,-25.0201,22.0,9.77
549,Acapulco de Juárez,40,MX,1619473357,62,16.8634,-99.8901,30.0,5.14
550,Port Macquarie,3,AU,1619473246,92,-31.4333,152.9167,13.89,0.89
551,Kiunga,100,PG,1619473493,99,-6.1219,141.2906,23.33,0.38
552,Forsytheganj,79,BY,1619473493,87,52.6333,29.7333,-0.61,2.88
553,Wundanyi,51,KE,1619473493,88,-3.4019,38.364,16.84,1.88
554,Zhalantun,2,CN,1619473494,54,48.0,122.7167,8.17,7.24
555,Rome,1,US,1619473309,36,43.2128,-75.4557,8.33,7.72
556,Oyama,20,JP,1619473494,75,36.3,139.8,12.78,1.54
557,Pauini,95,BR,1619473494,93,-7.7136,-66.9764,23.83,0.64
558,Hay River,100,CA,1619473494,66,60.8156,-115.7999,-14.0,4.63
559,Balkanabat,28,TM,1619473494,34,39.5108,54.3671,25.26,3.24
560,Navalmoral de la Mata,88,ES,1619473495,84,39.8916,-5.5406,11.67,0.55
561,Kalaīkunda,99,IN,1619473495,42,22.35,87.25,28.44,3.2
562,Māndal,0,IN,1619473495,8,25.45,74.5667,26.86,1.55
563,Atikokan,100,CA,1619473495,85,48.7555,-91.6216,1.36,3.9
564,Houlton,90,US,1619473496,81,46.1262,-67.8403,4.0,6.17
565,Malaryta,28,BY,1619473496,79,51.7905,24.074,-0.86,2.55
566,Lengshuitan,100,CN,1619473496,96,26.4111,111.5956,15.54,1.21
567,Grand Gaube,100,MU,1619473496,83,-20.0064,57.6608,25.0,3.13
568,Hambantota,20,LK,1619473457,100,6.1241,81.1185,26.0,1.03
