,City,Cloudiness,Country,Date,Humidity,Latitude,Longitude,Max Temp,Wind Speed
0,Bluff,94,NZ,1619311292,86,-46.6,168.3333,7.22,5.81
1,Thompson,75,CA,1619311292,43,55.7435,-97.8558,-2.0,2.57
2,Airai,10,TL,1619311292,59,-8.9266,125.4092,20.63,1.67
3,Jamestown,90,US,1619311174,40,42.097,-79.2353,12.0,4.63
4,Ushuaia,40,AR,1619311274,50,-54.8,-68.3,10.0,0.51
5,Mar del Plata,20,AR,1619311293,88,-38.0023,-57.5575,14.44,2.57
6,Yaring,40,TH,1619311293,94,6.8662,101.3689,25.0,1.03
7,Tiksi,100,RU,1619311183,92,71.6872,128.8694,0.23,5.07
8,Ancud,90,CL,1619311293,93,-41.8697,-73.8203,12.78,2.57
9,Longyearbyen,75,SJ,1619311293,74,78.2186,15.6401,-4.0,1.54
10,Vadsø,90,NO,1619311294,93,70.0744,29.7487,0.0,7.2
11,Majholi,100,IN,1619311294,13,23.5,79.9167,26.62,0.65
12,Tuatapere,46,NZ,1619311294,86,-46.1333,167.6833,7.22,5.81
13,Cap Malheureux,100,MU,1619311294,85,-19.9842,57.6142,24.44,4.02
14,Mahébourg,75,MU,1619311294,78,-20.4081,57.7,26.0,5.66
15,Katherine,99,AU,1619311295,29,-14.4667,132.2667,25.0,3.6
16,Hasaki,75,JP,1619311295,59,35.7333,140.8333,18.0,4.12
17,Nānākuli,75,US,1619311295,47,21.3906,-158.1547,28.0,3.09
18,Nemuro,75,JP,1619311227,93,43.3236,145.575,1.0,3.6
19,San Patricio,1,US,1619311295,17,28.017,-97.5169,33.0,4.63
20,La Ronge,100,CA,1619311296,47,55.1001,-105.2842,-1.0,4.12
21,Vaini,75,TO,1619311296,83,-21.2,-175.2,28.0,2.57
22,Albany,100,US,1619311296,37,42.6001,-73.9662,14.44,0.81
23,Yellowknife,75,CA,1619311296,53,62.456,-114.3525,-8.0,6.17
24,Hithadhoo,5,MV,1619311297,68,-0.6,73.0833,28.33,3.21
25,Buchanan,100,LR,1619311297,85,5.8808,-10.0467,26.66,2.95
26,Ternate,18,ID,1619311291,73,0.8,127.4,28.73,3.16
27,Rikitea,100,PF,1619311173,75,-23.1203,-134.9692,25.89,6.0
28,Clyde River,90,CA,1619311297,93,70.4692,-68.5914,-8.0,4.12
29,Geraldton,96,AU,1619311297,68,-28.7667,114.6,18.0,3.38
30,Chui,94,UY,1619311298,93,-33.6971,-53.4616,18.17,3.82
31,Ponta do Sol,93,PT,1619311298,84,32.6667,-17.1,14.44,2.68
32,Fairbanks,1,US,1619311169,23,64.8378,-147.7164,17.0,2.57
33,Tigil',100,RU,1619311298,100,57.8,158.6667,0.95,2.12
34,Staunton,90,US,1619311298,100,38.1496,-79.0717,8.33,2.06
35,Kapaa,20,US,1619311299,61,22.0752,-159.319,27.0,6.17
36,Teabo,100,MX,1619311299,42,20.4,-89.2833,28.53,2.83
37,Atuona,90,PF,1619311299,72,-9.8,-139.0333,27.09,6.99
38,Leningradskiy,100,RU,1619311299,84,69.3833,178.4167,0.04,0.73
39,New Norfolk,92,AU,1619311300,67,-42.7826,147.0587,16.11,3.84
40,Bogalusa,1,US,1619311300,50,30.791,-89.8487,27.22,3.6
41,Inhambane,3,MZ,1619311300,85,-23.865,35.3833,21.77,3.97
42,Saint Paul Harbor,90,US,1619311300,81,57.79,-152.4072,7.0,4.63
43,Sitka,20,US,1619311300,20,57.0531,-135.33,16.0,4.63
44,Puerto Ayora,100,EC,1619311301,87,-0.7393,-90.3518,24.41,2.99
45,Klyuchi,37,RU,1619311301,50,52.2667,79.1667,3.79,2.2
46,Half Moon Bay,90,US,1619311301,87,37.4636,-122.4286,16.0,3.6
47,San Miguel de Tucumán,75,AR,1619311301,94,-26.8241,-65.2226,19.0,1.54
48,Saint-Philippe,75,RE,1619311302,78,-21.3585,55.7679,25.0,9.77
49,Tiarei,75,PF,1619311302,78,-17.5333,-149.3333,28.0,2.57
50,Dryden,40,CA,1619311302,23,49.7833,-92.7503,3.0,2.57
51,Ketchikan,20,US,1619311231,31,55.3422,-131.6461,16.0,6.17
52,Bukama,100,CD,1619311302,98,-9.2,25.85,20.23,0.93
53,Hobyo,11,SO,1619311303,67,5.3505,48.5268,28.48,3.95
54,Kaitangata,97,NZ,1619311303,52,-46.2817,169.8464,11.67,6.71
55,Djambala,97,CG,1619311303,92,-2.5447,14.7533,19.75,0.87
56,Tuktoyaktuk,20,CA,1619311303,86,69.4541,-133.0374,-4.0,5.14
57,Bredasdorp,100,ZA,1619311304,93,-34.5322,20.0403,9.0,1.54
58,Hobart,40,AU,1619311176,58,-42.8794,147.3294,16.11,5.14
59,Avarua,40,CK,1619311016,70,-21.2078,-159.775,29.0,5.14
60,Isangel,75,VU,1619311304,66,-19.55,169.2667,31.0,1.03
61,Hermanus,100,ZA,1619311182,82,-34.4187,19.2345,16.67,1.79
62,Saint George,1,US,1619311251,11,37.1041,-113.5841,27.0,8.23
63,São João da Barra,6,BR,1619311222,84,-21.6403,-41.0511,21.95,1.06
64,Mtwara,100,TZ,1619311304,95,-10.2667,40.1833,23.27,4.83
65,Lagoa,57,PT,1619311304,80,39.05,-27.9833,14.97,10.57
66,Haines Junction,18,CA,1619311305,18,60.7522,-137.5108,14.0,2.06
67,Lavrentiya,93,RU,1619311305,93,65.5833,-171.0,0.78,0.93
68,Vanderhoof,82,CA,1619311305,29,54.0166,-124.0198,8.76,4.49
69,Sunland Park,1,US,1619311305,8,31.7965,-106.58,27.0,4.63
70,Bria,100,CF,1619311306,94,6.5423,21.9863,21.63,1.26
71,Port Alfred,95,ZA,1619311172,82,-33.5906,26.891,18.14,3.45
72,Nelson Bay,0,AU,1619311306,63,-32.7167,152.15,19.44,5.14
73,Kudat,20,MY,1619311306,89,6.8837,116.8477,28.0,2.06
74,San Juan,0,AR,1619311306,38,-31.5375,-68.5364,18.58,3.41
75,Vila Franca do Campo,75,PT,1619311307,82,37.7167,-25.4333,15.0,7.2
76,Korla,56,CN,1619311307,55,41.7597,86.1469,5.95,9.31
77,Barrow,1,US,1619311307,80,71.2906,-156.7887,-2.0,4.12
78,Port Elizabeth,90,ZA,1619311307,100,-33.918,25.5701,15.0,2.06
79,Lodja,100,CD,1619311308,97,-3.4833,23.4333,19.92,0.82
80,Dingle,45,PH,1619311308,63,10.9995,122.6711,29.7,0.45
81,Lompoc,100,US,1619311308,59,34.6391,-120.4579,16.0,6.17
82,Talnakh,100,RU,1619311308,95,69.4865,88.3972,-9.92,3.98
83,Busselton,0,AU,1619311182,75,-33.65,115.3333,19.25,0.38
84,Cradock,45,ZA,1619311309,35,-32.1642,25.6192,14.01,1.26
85,Atasū,100,KZ,1619311309,34,48.6814,71.6433,4.17,5.67
86,Sittwe,99,MM,1619311309,70,20.15,92.9,26.5,1.54
87,Punta Arenas,0,CL,1619311213,66,-53.15,-70.9167,8.0,7.2
88,Tasiilaq,75,GL,1619311309,70,65.6145,-37.6368,6.0,9.26
89,Cairns,90,AU,1619311310,88,-16.9167,145.7667,25.0,5.14
90,Severo-Kuril'sk,100,RU,1619311310,97,50.6789,156.125,1.71,2.35
91,Moses Lake,75,US,1619311310,67,47.1301,-119.2781,13.0,4.63
92,Laas,0,IT,1619311310,75,46.6166,10.7002,9.44,2.06
93,Mataura,56,NZ,1619311310,86,-46.1927,168.8643,7.22,5.81
94,Thornbury,0,GB,1619311311,89,52.2333,-2.55,4.44,2.9
95,Bandarbeyla,16,SO,1619311311,77,9.4942,50.8122,27.96,2.85
96,Ekibastuz,100,KZ,1619311311,39,51.6667,75.3667,5.88,5.63
97,Bambous Virieux,75,MU,1619311311,78,-20.3428,57.7575,26.0,5.66
98,Sovetskaya Gavan',100,RU,1619311312,55,48.9723,140.2878,2.41,6.56
99,Anderson,90,US,1619311312,94,34.5334,-82.6499,14.0,2.57
100,Nsukka,97,NG,1619311312,87,6.8561,7.3927,22.16,1.46
101,Cabedelo,40,BR,1619311312,94,-6.9811,-34.8339,25.0,1.03
102,Aklavik,15,CA,1619311313,48,68.2191,-135.0107,5.0,4.63
103,Bumba,100,CD,1619311313,94,2.1833,22.4667,22.32,0.47
104,Ribeira Grande,87,PT,1619311313,73,38.5167,-28.7,15.36,9.08
105,Pacifica,90,US,1619311044,82,37.6138,-122.4869,14.44,3.6
106,Northam,0,GB,1619311313,66,51.0333,-4.2167,8.89,1.34
107,Dukat,100,RU,1619311314,81,62.55,155.55,-12.6,2.9
108,Jumla,0,NP,1619311314,53,29.2747,82.1838,7.89,2.41
109,Hong Kong,100,HK,1619311111,86,22.2855,114.1577,25.56,1.34
110,Shingū,40,JP,1619311314,68,33.7333,135.9833,19.0,4.63
111,Qaanaaq,100,GL,1619311314,68,77.484,-69.3632,-3.8,3.56
112,Mizdah,0,LY,1619311269,77,31.4451,12.9801,11.96,1.81
113,Torbay,20,CA,1619311315,87,47.6666,-52.7314,3.33,5.66
114,Chicama,12,PE,1619311315,94,-7.8447,-79.1469,17.0,5.14
115,Bengkulu,72,ID,1619311315,78,-3.8004,102.2655,25.87,1.05
116,Puerto Carreño,100,CO,1619311100,60,6.189,-67.4859,29.93,2.82
117,North Bend,90,US,1619311232,87,43.4065,-124.2243,11.0,6.69
118,Dikson,68,RU,1619311315,97,73.5069,80.5464,-14.92,3.17
119,Pevek,100,RU,1619311316,94,69.7008,170.3133,-3.05,3.57
120,Arraial do Cabo,13,BR,1619311316,80,-22.9661,-42.0278,23.24,3.38
121,Khatanga,100,RU,1619311174,92,71.9667,102.5,-0.58,9.03
122,Bhūm,4,IN,1619311316,27,18.4667,75.6667,29.13,2.69
123,Afşin,100,TR,1619311317,45,38.2477,36.914,14.11,0.88
124,Saint Anthony,1,US,1619311317,31,45.0205,-93.218,9.0,5.14
125,Hilo,90,US,1619311272,73,19.7297,-155.09,24.0,4.63
126,Namatanai,33,PG,1619311317,68,-3.6667,152.4333,29.38,3.88
127,Carnarvon,0,AU,1619311317,60,-24.8667,113.6333,20.0,3.09
128,Portland,90,US,1619311259,71,45.5234,-122.6762,12.0,3.6
129,East London,99,ZA,1619311317,78,-33.0153,27.9116,17.93,2.25
130,Fredericia,0,DK,1619311318,86,55.5657,9.7526,1.67,2.68
131,Palmer,40,US,1619311318,29,42.1584,-72.3287,17.0,4.12
132,Valparaíso,0,CL,1619311022,82,-33.0393,-71.6273,14.44,2.06
133,Copiapó,0,CL,1619311167,77,-27.3667,-70.3333,15.0,0.22
134,Hofn,100,IS,1619311177,89,64.2539,-15.2082,7.25,1.8
135,Kadaya,95,RU,1619311318,27,50.9327,119.2911,9.58,1.64
136,Kyshtovka,100,RU,1619311319,66,56.555,76.6271,3.62,2.31
137,Lake Charles,1,US,1619311201,41,30.2131,-93.2044,27.0,4.63
138,Humaitá,11,BR,1619311319,93,-7.5061,-63.0208,23.59,0.64
139,Rengo,0,CL,1619311319,71,-34.4167,-70.8667,13.0,1.03
140,Salalah,40,OM,1619311266,78,17.0151,54.0924,28.0,2.57
141,San Andrés del Rabanedo,90,ES,1619311319,71,42.6117,-5.6167,13.89,1.54
142,Esperance,64,AU,1619311192,72,-33.8667,121.9,16.0,7.72
143,Palmas Bellas,18,PA,1619311320,77,9.2319,-80.0867,27.78,2.24
144,Humberto de Campos,100,BR,1619311320,92,-2.5983,-43.4611,24.49,1.75
145,Margate,0,GB,1619311320,72,51.3813,1.3862,7.78,2.68
146,Katsuura,75,JP,1619311320,59,35.1333,140.3,18.33,6.17
147,Thesprotikó,40,GR,1619311321,67,39.25,20.7847,15.0,2.57
148,Fortuna,1,US,1619311321,58,40.5982,-124.1573,14.44,5.14
149,Oddur,89,SO,1619311321,81,4.1213,43.8894,23.5,3.87
150,Port Hardy,90,CA,1619311277,87,50.6996,-127.4199,10.0,2.06
151,Narsaq,90,GL,1619311321,32,60.9167,-46.05,12.0,13.38
152,Tsybli,0,UA,1619311322,80,49.9948,31.5628,0.0,3.0
153,Berlevåg,100,NO,1619311181,76,70.8578,29.0864,1.0,7.88
154,Zhangye,100,CN,1619311322,33,38.9342,100.4517,11.6,5.1
155,Ucluelet,90,CA,1619311272,87,48.9329,-125.5528,10.0,2.57
156,Seoul,0,KR,1619311212,48,37.5683,126.9778,18.0,6.17
157,Lysyye Gory,6,RU,1619311322,74,51.5506,44.8414,2.37,7.31
158,Jacareacanga,83,BR,1619311322,84,-6.2222,-57.7528,25.86,0.32
159,Thinadhoo,0,MV,1619311323,68,0.5333,72.9333,28.04,3.09
160,Cabra,100,ES,1619311323,83,37.4725,-4.4421,13.33,0.85
161,Guánica,11,PR,1619311323,76,17.9716,-66.908,26.11,4.37
162,Coquimbo,0,CL,1619311323,77,-29.9533,-71.3436,15.0,1.54
163,Chokurdakh,0,RU,1619311324,79,70.6333,147.9167,-11.36,3.12
164,Acapulco de Juárez,40,MX,1619311225,61,16.8634,-99.8901,29.0,3.09
165,Coroico,20,BO,1619311324,46,-16.1889,-67.7271,9.0,2.57
166,Vila Velha,75,BR,1619311117,83,-20.3297,-40.2925,24.0,1.54
167,Mehamn,100,NO,1619311324,79,71.0357,27.8492,0.03,8.14
168,Tucumã,98,BR,1619311324,90,-0.1833,-50.05,24.27,1.99
169,Stabat,40,ID,1619311325,100,3.761,98.4513,24.0,2.57
170,Saskylakh,100,RU,1619311325,94,71.9167,114.0833,-0.27,4.5
171,Cape Town,0,ZA,1619311310,94,-33.9258,18.4232,15.56,1.54
172,George Town,20,MY,1619311325,89,5.4112,100.3354,27.78,2.57
173,San Miguel de Cozumel,40,MX,1619311083,74,20.5083,-86.9458,28.0,3.6
174,Gornyak,0,RU,1619311326,48,50.9942,81.4661,3.72,1.87
175,Dzhebariki-Khaya,100,RU,1619311326,86,62.2167,135.8,-3.77,1.07
176,Norman Wells,75,CA,1619311326,42,65.282,-126.8329,6.0,7.72
177,Butaritari,49,KI,1619311326,76,3.0707,172.7902,27.98,4.91
178,Puerto Madryn,0,AR,1619311252,55,-42.7692,-65.0385,14.22,3.77
179,Kruisfontein,41,ZA,1619311327,94,-34.0033,24.7314,14.44,0.89
180,Herat Province,95,AF,1619311327,26,34.5,62.0,14.37,4.29
181,Mazamari,8,PE,1619311327,97,-11.3258,-74.5308,21.0,0.98
182,Nuuk,20,GL,1619311327,65,64.1835,-51.7216,4.0,7.72
183,Stykkisholmur,100,IS,1619311328,89,65.0757,-22.7297,5.39,4.29
184,Marshall,40,US,1619311328,77,34.3834,-86.3333,18.33,4.12
185,Bonthe,95,SL,1619311328,80,7.5264,-12.505,26.83,2.75
186,Castro,98,BR,1619311187,77,-24.7911,-50.0119,15.1,1.22
187,Tazovsky,100,RU,1619311328,95,67.4667,78.7,-8.6,3.21
188,Bubaque,4,GW,1619311279,66,11.2833,-15.8333,25.68,8.44
189,City of San Pedro,20,PH,1619311329,74,14.35,121.0167,29.44,1.54
190,Port Shepstone,0,ZA,1619311329,79,-30.7414,30.455,18.88,2.86
191,Bethel,1,US,1619311216,31,41.3712,-73.414,15.0,4.12
192,Chul'man,100,RU,1619311329,90,56.8479,124.9104,0.39,2.55
193,Carbondale,90,US,1619311229,88,37.7273,-89.2168,13.0,5.66
194,Jelgava,90,LV,1619311329,80,56.65,23.7128,2.0,3.6
195,Rujewa,84,TZ,1619311330,80,-8.7,34.3833,19.0,1.7
196,Laguna,75,US,1619311330,42,38.421,-121.4238,19.0,6.69
197,Jitra,20,MY,1619311330,100,6.2681,100.4217,24.0,1.54
198,Wajima,75,JP,1619311330,67,37.4,136.9,13.0,3.6
199,Abu Kamal,34,SY,1619311331,16,34.4506,40.9171,25.2,3.62
200,Coyhaique,40,CL,1619311331,81,-45.5752,-72.0662,9.0,2.06
201,Sørland,86,NO,1619311331,58,67.667,12.6934,2.49,8.73
202,Green Valley,24,US,1619311274,13,31.8543,-110.9937,30.56,0.89
203,Alta Floresta,45,BR,1619311331,93,-9.8756,-56.0861,22.2,0.92
204,Vostok,72,RU,1619311332,37,46.4856,135.8833,2.6,4.75
205,Lebu,0,CL,1619311332,81,-37.6167,-73.65,12.36,7.11
206,Chapleau,90,CA,1619311332,100,47.8405,-83.4034,0.0,3.6
207,Jardim,100,BR,1619311332,86,-21.4803,-56.1381,20.7,5.66
208,Henties Bay,2,NA,1619311332,84,-22.116,14.2845,17.72,3.67
209,Chimoré,83,BO,1619311333,99,-16.9833,-65.1333,21.22,1.02
210,Faya,20,SA,1619311333,58,18.3851,42.4509,16.0,2.29
211,Qaqortoq,90,GL,1619311333,32,60.7167,-46.0333,12.0,13.38
212,Sampit,94,ID,1619311333,65,-2.5333,112.95,29.18,1.05
213,Ossora,100,RU,1619311254,99,59.2353,163.0719,-0.06,2.71
214,Moss Point,40,US,1619311334,83,30.4116,-88.5345,25.0,3.15
215,Port Hedland,0,AU,1619311334,24,-20.3167,118.5667,27.0,6.69
216,Cabo San Lucas,1,MX,1619311334,27,22.8909,-109.9124,26.67,4.12
217,Labuhan,13,ID,1619311274,77,-6.8844,112.2051,26.78,3.06
218,Amahai,12,ID,1619311334,67,-3.3333,128.9167,28.82,0.97
219,Mumias,99,KE,1619311335,94,0.3351,34.4864,17.51,0.69
220,Sorong,18,ID,1619311335,75,-0.8833,131.25,28.19,2.97
221,Dibulla,26,CO,1619311335,89,11.2725,-73.3091,25.57,1.75
222,Bud,100,US,1619311335,92,39.447,-86.1758,11.11,2.01
223,Alice Springs,0,AU,1619311176,42,-23.7,133.8833,18.0,4.63
224,Kismayo,96,SO,1619311336,75,-0.3582,42.5454,27.27,3.86
225,Cabras,8,IT,1619311336,82,39.93,8.5314,10.89,3.15
226,Khorixas,6,NA,1619311336,48,-20.3667,14.9667,19.57,1.21
227,Luganville,55,VU,1619311336,82,-15.5333,167.1667,28.17,4.83
228,Xingyi,6,CN,1619311337,37,24.1877,102.817,21.91,1.81
229,Nanortalik,100,GL,1619311337,75,60.1432,-45.2371,4.72,6.82
230,Kaihua,71,CN,1619311337,73,23.3687,104.28,22.54,3.94
231,Mildura,1,AU,1619311337,63,-34.2,142.15,17.22,3.09
232,Leh,2,IN,1619311338,31,34.1667,77.5833,-3.94,1.64
233,Manzhouli,100,CN,1619311151,17,49.6,117.4333,11.37,3.38
234,Mombasa,75,KE,1619311092,89,-4.0547,39.6636,27.0,2.57
235,Shache,100,CN,1619311179,15,38.4167,77.2406,15.72,3.0
236,Ginir,72,ET,1619311338,90,7.1333,40.7,13.69,1.56
237,Merauke,85,ID,1619311300,84,-8.4667,140.3333,26.64,5.77
238,Kimbe,68,PG,1619311338,66,-5.5502,150.1429,30.35,1.67
239,Provideniya,100,RU,1619311338,72,64.3833,-173.3,4.35,0.78
240,Osa,100,RU,1619311339,90,57.2829,55.4567,4.96,4.42
241,Ejido Ixcatepec,100,MX,1619311339,76,21.2,-97.95,24.93,2.66
242,Mogwase,0,ZA,1619311339,32,-25.185,27.2665,14.76,1.58
243,Hualmay,5,PE,1619311339,86,-11.0964,-77.6139,19.33,4.06
244,Mount Gambier,90,AU,1619311340,88,-37.8333,140.7667,14.0,2.06
245,Pisco,0,PE,1619311340,88,-13.7,-76.2167,19.44,7.72
246,Ţahţā,0,EG,1619311340,30,26.7693,31.5021,22.0,2.57
247,Koungou,0,YT,1619311340,89,-12.7336,45.2042,26.0,2.57
248,Mulchén,0,CL,1619311341,58,-37.7167,-72.2333,13.67,2.91
249,Klaksvík,100,FO,1619311341,87,62.2266,-6.589,5.0,2.18
250,Balikpapan,69,ID,1619311341,83,-1.2675,116.8289,26.43,1.98
251,Harkány,0,HU,1619311341,87,45.85,18.2367,8.33,2.57
252,Port Blair,40,IN,1619311342,83,11.6667,92.75,25.0,0.51
253,Grand Gaube,100,MU,1619311342,85,-20.0064,57.6608,24.44,4.02
254,Altay,10,CN,1619311342,48,47.8667,88.1167,-2.16,1.5
255,Zhigansk,100,RU,1619311132,99,66.7697,123.3711,0.93,3.0
256,Hamilton,90,US,1619311093,87,39.1834,-84.5333,11.11,2.06
257,Bathsheba,28,BB,1619311342,76,13.2167,-59.5167,25.7,7.58
258,Praia da Vitória,75,PT,1619311343,94,38.7333,-27.0667,14.0,11.45
259,Ulladulla,75,AU,1619311146,63,-35.35,150.4667,17.22,4.12
260,Nyurba,100,RU,1619311343,84,63.2842,118.3319,2.58,2.33
261,Vágur,100,FO,1619311343,77,61.4732,-6.8119,7.81,4.16
262,Dhidhdhoo,23,MV,1619311343,71,6.8833,73.1,28.64,1.61
263,Mayo,90,US,1619311344,71,38.8876,-76.5119,13.0,2.06
264,Calama,0,CL,1619311192,37,-22.4667,-68.9333,12.0,4.12
265,Roald,90,NO,1619311344,100,62.5833,6.1333,0.0,2.06
266,Baghmara,0,IN,1619311344,13,23.795,86.2085,29.3,1.2
267,Ust-Nera,96,RU,1619311344,84,64.5667,143.2,-10.03,2.38
268,Iquitos,0,PE,1619311345,89,-3.7481,-73.2472,26.0,0.81
269,Mackenzie,20,CA,1619311345,27,55.2999,-123.1698,8.0,3.09
270,Praia,12,CV,1619311345,78,14.9215,-23.5087,21.42,6.02
271,Cangzhou,100,CN,1619311149,33,38.3167,116.8667,15.66,6.24
272,Valleyview,100,CA,1619311345,28,55.0667,-117.2859,4.0,3.09
273,Rawson,0,AR,1619311346,59,-43.3002,-65.1023,13.94,4.58
274,Mana,100,GF,1619311346,88,5.6592,-53.7767,25.34,4.95
275,Sola,90,VU,1619311346,89,-13.8833,167.55,28.0,7.47
276,Straumen,90,NO,1619311346,75,63.8709,11.2999,2.22,4.63
277,Beloha,0,MG,1619311347,75,-25.1667,45.05,20.42,2.52
278,Port Moresby,40,PG,1619311192,83,-9.4431,147.1797,28.0,3.6
279,Challapata,0,BO,1619311347,31,-18.9,-66.7667,6.76,2.24
280,Upernavik,8,GL,1619311347,84,72.7868,-56.1549,-4.47,2.99
281,Scottsbluff,1,US,1619311347,39,41.8666,-103.6672,16.0,5.66
282,Mīzan Teferī,100,ET,1619311348,95,6.9833,35.5833,16.86,1.13
283,Cayenne,90,GF,1619311348,94,4.9333,-52.3333,26.11,2.06
284,Tres Arroyos,4,AR,1619311341,74,-38.3739,-60.2798,12.28,3.7
285,Sortland,90,NO,1619311348,74,68.6949,15.4162,-0.56,2.06
286,Yerbogachën,100,RU,1619311348,82,61.2767,108.0108,2.7,1.3
287,Øksfjord,90,NO,1619311349,69,70.2396,22.3479,0.0,5.14
288,Sarkand,100,KZ,1619311212,45,45.41,79.9186,5.07,1.51
289,Bragança,100,BR,1619311349,96,-1.0536,-46.7656,23.4,0.47
290,Travagliato,0,IT,1619311349,82,45.5191,10.0805,13.33,1.45
291,Colares,28,PT,1619311349,90,38.7992,-9.4469,16.67,5.81
292,Naco,9,MX,1619311350,12,31.3347,-109.9483,25.0,2.68
293,Soyo,78,AO,1619311350,84,-6.1349,12.3689,25.81,1.99
294,Cherskiy,100,RU,1619311350,83,68.75,161.3,-5.94,6.08
295,Sembakung,75,ID,1619311350,89,3.8167,117.25,26.0,1.54
296,Aksu,100,CN,1619311351,32,41.1231,80.2644,12.87,2.25
297,Banyo,100,CM,1619311351,93,6.75,11.8167,19.7,0.93
298,Ambon City,40,ID,1619311158,66,-3.6954,128.1814,31.0,1.54
299,Mariehamn,75,AX,1619311351,75,60.0973,19.9348,1.0,4.12
300,Scarborough,60,GB,1619311351,81,54.2797,-0.4044,5.56,0.45
301,Araceli,10,PH,1619311352,72,10.5529,119.9913,27.95,2.59
302,Fort Nelson,40,CA,1619311190,23,58.8053,-122.7002,9.0,3.6
303,Wahpeton,1,US,1619311352,28,46.2652,-96.6059,6.67,3.09
304,Xiaoshi,0,CN,1619311352,37,41.2971,124.1209,10.0,6.0
305,Ponta Delgada,40,PT,1619311352,88,37.7333,-25.6667,14.0,9.26
306,Nikolayevsk-on-Amur,67,RU,1619311353,60,53.1406,140.73,1.38,4.74
307,Eydhafushi,18,MV,1619311353,73,5.1033,73.0708,28.46,2.64
308,Meulaboh,79,ID,1619311353,83,4.1363,96.1285,24.95,1.14
309,Troitsk,62,RU,1619311353,68,54.0979,61.5773,5.08,1.83
310,Cochrane,90,CA,1619311078,64,51.1834,-114.4687,1.67,2.06
311,Tingo María,8,PE,1619311354,98,-9.2895,-76.0088,21.02,0.96
312,Asunción,75,PY,1619311354,94,-25.3007,-57.6359,20.0,1.03
313,Markova,100,UA,1619311354,84,48.6758,24.4138,2.52,2.18
314,Bluefields,20,NI,1619311354,75,12.0137,-83.7635,24.7,2.97
315,Juneau,20,US,1619311355,18,58.3019,-134.4197,16.0,4.63
316,Mercedes,0,AR,1619311355,69,-34.6515,-59.4307,15.56,0.45
317,Saint-Pierre,75,RE,1619311355,78,-21.3393,55.4781,25.0,9.77
318,Florence,0,IT,1619311355,58,43.7667,11.25,11.0,1.54
319,Nikolskoye,0,RU,1619311356,86,59.7035,30.7861,2.78,3.0
320,Djibo,6,BF,1619311356,9,14.1022,-1.6306,31.08,2.87
321,Krymsk,100,RU,1619311356,81,44.9293,37.9912,7.22,2.0
322,Bāpatla,81,IN,1619311356,78,15.9,80.4667,28.32,2.49
323,Marzuq,4,YE,1619311357,45,14.4,46.4667,20.15,2.9
324,Tambacounda,0,SN,1619311357,15,13.7539,-13.7586,31.0,2.06
325,Norden,88,DE,1619311357,71,53.6,7.2,5.56,3.13
326,Atarra,100,IN,1619311357,12,25.2833,80.5667,27.51,1.56
327,Constitución,0,CL,1619311256,67,-35.3333,-72.4167,13.91,4.08
328,Los Llanos de Aridane,40,ES,1619311355,56,28.6585,-17.9182,20.0,3.6
329,Zhukovo,15,RU,1619311358,80,55.0318,36.744,1.0,5.0
330,Ulaangom,66,MN,1619311358,36,49.9811,92.0667,2.32,7.38
331,Souillac,75,MU,1619311358,78,-20.5167,57.5167,26.0,5.66
332,Tabriz,0,IR,1619311358,43,38.08,46.2919,10.0,2.06
333,Batemans Bay,61,AU,1619311358,52,-35.7167,150.1833,18.33,1.27
334,Wajir,92,KE,1619311359,72,1.7471,40.0573,25.99,5.26
335,Chapais,1,CA,1619311359,60,49.7834,-74.8492,4.0,4.63
336,Bridge City,1,US,1619311359,44,30.0208,-93.8457,27.0,2.57
337,Saurimo,100,AO,1619311359,92,-9.6608,20.3916,17.91,0.81
338,Zhangjiakou,100,CN,1619311360,58,40.81,114.8794,13.39,4.55
339,Saldanha,100,ZA,1619311360,77,-33.0117,17.9442,14.0,1.54
340,Vernon,100,CA,1619311360,38,50.2581,-119.2691,16.67,1.03
341,Tyssedal,2,NO,1619311361,62,60.1165,6.562,2.78,0.89
342,Myaundzha,6,RU,1619311361,68,63.0494,147.1858,-11.28,1.97
343,Smirnykh,100,RU,1619311361,54,49.75,142.8333,3.32,4.05
344,Waipawa,5,NZ,1619311361,48,-41.4122,175.5153,18.0,6.69
345,Teknāf,93,BD,1619311362,72,20.8624,92.3058,25.76,1.15
346,Ciudad General Terán,100,MX,1619311362,16,25.2667,-99.6833,28.09,2.79
347,Itoman,75,JP,1619311200,68,26.1247,127.6694,23.0,6.69
348,Bijie,100,CN,1619311362,92,27.3125,105.2942,14.86,2.07
349,Emerald,11,AU,1619311362,29,-23.5333,148.1667,25.0,5.66
350,Guanay,83,BO,1619311363,98,-15.4975,-67.8797,22.24,0.31
351,Pacific Grove,100,US,1619311363,77,36.6177,-121.9166,15.56,3.2
352,Cururupu,100,BR,1619311363,93,-1.8283,-44.8683,24.29,1.26
353,Husavik,0,IS,1619311363,93,66.0449,-17.3389,4.0,1.54
354,Alakurtti,100,RU,1619311364,88,66.9672,30.3491,0.0,2.68
355,Manicoré,4,BR,1619311364,93,-5.8092,-61.3003,23.88,1.0
356,Puri,20,IN,1619311364,94,19.8,85.85,30.0,3.09
357,San Quintín,3,MX,1619311365,76,30.4833,-115.95,15.87,7.36
358,Gmunden,100,AT,1619311365,73,47.9189,13.7975,5.0,1.34
359,Ampanihy,0,MG,1619311365,74,-24.7,44.75,20.08,1.38
360,Balkhash,53,KZ,1619311365,47,46.844,74.9804,5.34,7.62
361,Emba,36,KZ,1619311366,85,48.8264,58.1442,6.6,2.96
362,Wundanyi,100,KE,1619311366,92,-3.4019,38.364,16.46,0.91
363,Alyangula,75,AU,1619311366,78,-13.8483,136.4192,28.0,3.09
364,Bontang,100,ID,1619311366,72,0.1333,117.5,28.02,1.95
365,Petropavlovsk-Kamchatskiy,90,RU,1619311367,100,53.0452,158.6483,2.0,3.0
366,Eureka,100,US,1619311320,76,40.8021,-124.1637,12.22,3.58
367,Atar,0,MR,1619311367,15,20.5169,-13.0499,26.03,1.85
368,Golden,75,US,1619311139,22,39.7555,-105.2211,18.89,2.57
369,São Filipe,7,CV,1619311367,73,14.8961,-24.4956,22.57,4.86
370,Chokwé,5,MZ,1619311367,89,-24.5333,32.9833,18.27,2.18
371,Flinders,3,AU,1619311368,67,-34.5833,150.8552,20.56,1.34
372,Dali,20,CN,1619311368,33,25.7,100.1833,19.47,1.67
373,Diu,100,IN,1619311368,59,20.7141,70.9822,27.3,2.84
374,Omboué,99,GA,1619311368,90,-1.5746,9.2618,24.82,2.27
375,Amurzet,0,RU,1619311368,22,47.6967,131.0981,7.11,8.21
376,Yatou,83,CN,1619311369,57,37.15,122.3833,13.93,5.98
377,Yumen,4,CN,1619311343,31,40.2833,97.2,10.67,4.21
378,Morgan City,1,US,1619311369,83,29.6994,-91.2068,25.0,4.63
379,Polson,100,US,1619311369,84,47.6936,-114.1632,8.33,1.34
380,Lüderitz,100,NA,1619311370,70,-26.6481,15.1594,18.19,2.44
381,Goderich,100,CA,1619311152,44,43.7501,-81.7165,13.0,3.6
382,Isfana,20,KG,1619311370,71,39.8386,69.5306,13.0,3.0
383,Nang Rong,65,TH,1619311370,94,14.6377,102.7914,29.44,2.54
384,Neryungri,100,RU,1619311370,86,56.6709,124.6491,0.84,1.84
385,Suluova,0,TR,1619311371,76,40.8313,35.6479,8.0,8.75
386,Kyra,100,RU,1619311371,18,49.5776,111.9753,8.12,1.98
387,Guerrero Negro,5,MX,1619311096,71,27.9769,-114.0611,16.6,8.92
388,Fort Collins,1,US,1619311362,34,40.5853,-105.0844,17.0,2.86
389,Jaqué,96,PA,1619311325,84,7.5175,-78.1703,26.6,0.76
390,Ratnagiri,6,IN,1619311371,75,16.9833,73.3,25.05,1.43
391,Touros,0,BR,1619311310,88,-5.1989,-35.4608,25.0,2.06
392,Harper,100,LR,1619311287,83,4.375,-7.7169,27.14,3.39
393,Yakeshi,68,CN,1619311371,30,49.2833,120.7333,8.99,1.23
394,Morondava,58,MG,1619311343,77,-20.2833,44.2833,23.98,3.13
395,Caconda,100,AO,1619311372,75,-13.7333,15.0667,15.32,1.25
396,Rovaniemi,90,FI,1619311372,86,66.5,25.7167,-1.0,4.12
397,Kachug,100,RU,1619311372,96,53.9606,105.8817,2.63,1.23
398,Nouadhibou,20,MR,1619311372,94,20.931,-17.0347,18.0,6.17
399,Necochea,0,AR,1619311373,80,-38.5473,-58.7368,14.44,0.89
400,Teguise,0,ES,1619311373,72,29.0605,-13.564,19.0,2.57
401,Nizhnyaya Tavda,99,RU,1619311373,60,57.6731,66.1725,4.83,2.86
402,Kieta,100,PG,1619311269,74,-6.2167,155.6333,28.06,2.01
403,Avera,90,US,1619311373,87,33.194,-82.5271,18.0,4.12
404,Revda,0,RU,1619311374,49,56.801,59.9303,6.0,3.0
405,Guangming,43,CN,1619311152,16,45.3333,122.7833,15.24,3.2
406,Poquoson,90,US,1619311374,100,37.1224,-76.3458,13.33,4.63
407,Ostrovnoy,100,RU,1619311307,99,68.0531,39.5131,1.31,2.35
408,Glendive,75,US,1619311374,28,47.1053,-104.7125,12.0,2.06
409,Tay Ninh,9,VN,1619311374,66,11.3,106.1,29.55,3.58
410,Dicabisagan,62,PH,1619311375,72,17.0818,122.4157,26.53,3.25
411,Mapastepec,90,MX,1619311375,70,15.4333,-92.9,28.09,1.46
412,Abbeville,100,FR,1619311375,83,50.1,1.8333,6.11,5.03
413,Chaihe,4,CN,1619311375,27,44.7667,129.7,10.14,5.47
414,Kavieng,15,PG,1619311376,70,-2.5744,150.7967,29.39,4.54
415,Trincomalee,21,LK,1619311376,76,8.5711,81.2335,27.36,2.8
416,Phalodi,0,IN,1619311376,19,27.1333,72.3667,24.58,3.13
417,Iqaluit,75,CA,1619311376,93,63.7506,-68.5145,-1.0,1.54
418,Boguchany,100,RU,1619311377,93,58.3814,97.4531,2.01,2.44
419,Russell,40,US,1619311377,94,32.3502,-85.1999,19.0,2.57
420,Moindou,75,NC,1619311377,69,-21.6924,165.677,28.0,5.14
421,Danilovka,83,RU,1619311377,78,50.3557,44.1168,2.84,5.27
422,Kouango,98,CF,1619311378,94,4.9934,19.9619,21.37,1.15
423,Idlib,0,SY,1619311378,59,35.9306,36.6339,18.0,1.03
424,Conceição do Araguaia,100,BR,1619311378,91,-8.2578,-49.2647,23.89,0.89
425,Sirte,11,LY,1619311378,78,31.2089,16.5887,16.35,7.93
426,Bosaso,96,SO,1619311378,65,11.2842,49.1816,29.3,1.5
427,Gizo Government Station,38,SB,1619311379,66,-8.103,156.8419,29.83,3.95
428,Māndal,0,IN,1619311379,19,25.45,74.5667,23.07,2.71
429,Kanniyākumāri,56,IN,1619311157,75,8.0833,77.5667,28.02,2.14
430,Broome,1,US,1619311379,33,42.2506,-75.833,14.0,2.57
431,Moerai,42,PF,1619311379,67,-22.4333,-151.3333,24.62,5.01
432,Walvis Bay,96,NA,1619311380,94,-22.9575,14.5053,14.0,1.03
433,Pierre,1,US,1619311380,40,44.3683,-100.351,9.44,6.17
434,Sladkovo,100,RU,1619311380,50,55.5284,70.3385,5.15,5.98
435,Hambantota,93,LK,1619311380,100,6.1241,81.1185,24.0,1.54
436,Entre Rios,4,BR,1619311381,95,-11.9419,-38.0844,21.81,1.12
437,Porgera,88,PG,1619311381,77,-5.4667,143.2,10.86,1.4
438,Tevaitoa,100,PF,1619311381,74,-16.7833,-151.5,26.31,4.21
439,Roebourne,0,AU,1619311381,24,-20.7833,117.1333,28.74,8.2
440,Sarakhs,79,IR,1619311382,63,36.5449,61.1577,16.0,1.03
441,Gorodets,90,RU,1619311382,100,56.6514,43.475,3.89,5.0
442,Diré,29,ML,1619311382,18,12.2833,-10.9667,30.66,0.9
443,Mossamedes,75,AO,1619311382,79,-15.1961,12.1522,25.36,0.9
444,Mujiayingzi,100,CN,1619311382,55,42.1167,118.7833,9.17,1.43
445,Lisala,100,CD,1619311383,96,2.15,21.5167,21.33,0.97
446,Havre-St-Pierre,1,CA,1619311383,87,50.2334,-63.5986,3.0,6.17
447,Chara,100,RU,1619311383,67,56.9064,118.2631,-1.6,0.37
448,Fonte Boa,56,BR,1619311383,97,-2.4959,-66.2662,23.63,0.95
449,Port Macquarie,0,AU,1619311384,58,-31.4333,152.9167,21.67,0.89
450,Hanstholm,98,DK,1619311384,11,57.1167,8.6167,0.56,4.13
451,São Pedro,0,BR,1619311384,66,-22.5486,-47.9139,17.82,0.74
452,Yinchuan,17,CN,1619311384,65,38.4681,106.2731,10.23,0.83
453,Dalbandin,0,PK,1619311385,12,28.8947,64.4101,22.81,1.55
454,Acajutla,9,SV,1619311385,94,13.5928,-89.8275,23.33,0.89
455,Vangaindrano,56,MG,1619311385,92,-23.35,47.6,20.99,0.18
456,Uruçuí,60,BR,1619311385,84,-7.2294,-44.5561,25.35,0.25
457,Salinópolis,100,BR,1619311386,84,-0.6136,-47.3561,26.15,2.6
458,Agirish,100,RU,1619311386,93,61.9247,63.0231,4.66,1.99
459,Vestmannaeyjar,100,IS,1619311386,89,63.4427,-20.2734,6.93,9.66
460,Tamiahua,100,MX,1619311386,85,21.2667,-97.45,25.55,3.28
461,Qaryat Sulūq,89,LY,1619311387,74,31.6682,20.2521,16.27,9.24
462,Aksha,99,RU,1619311387,12,50.2814,113.2867,11.62,4.07
463,Timrå,100,SE,1619311387,48,62.487,17.3257,2.0,6.17
464,Gisborne,4,NZ,1619311247,50,-38.6533,178.0042,18.89,2.24
465,Ndélé,100,CF,1619311387,76,8.4109,20.6473,23.8,3.45
466,Asău,100,RO,1619311388,51,46.4333,26.4,6.67,1.39
467,Porto-Novo,40,BJ,1619311388,79,6.4965,2.6036,29.0,1.54
468,Cavalcante,95,BR,1619311388,67,-13.7975,-47.4583,23.78,0.9
469,Moose Factory,90,CA,1619311388,68,51.2585,-80.6094,-5.0,3.6
470,Yegorlykskaya,100,RU,1619311389,83,46.5656,40.6562,5.11,2.5
471,Flin Flon,61,CA,1619311389,39,54.7682,-101.865,-0.86,1.61
472,Novobiryusinskiy,100,RU,1619311389,91,56.9578,97.7076,0.82,2.7
473,Dunedin,100,NZ,1619311389,71,-45.8742,170.5036,11.67,6.71
474,Kibala,0,TD,1619311390,45,9.1104,18.3463,31.0,2.06
475,Merritt,75,CA,1619311390,44,50.1123,-120.7942,15.0,2.06
476,Makakilo City,75,US,1619311390,47,21.3469,-158.0858,29.0,3.09
477,Tyukhtet,100,RU,1619311390,98,56.5389,89.3011,0.7,3.82
478,Kahului,40,US,1619311391,57,20.8947,-156.47,28.0,11.83
479,Bo`ka,0,UZ,1619311391,44,40.8108,69.1986,13.0,3.09
480,Kaitong,46,CN,1619311391,19,44.8135,123.15,14.5,3.75
481,Solnechnyy,88,RU,1619311314,36,50.7214,136.6319,2.15,5.59
482,Puro,94,PH,1619311391,69,12.4841,123.3827,28.46,1.5
483,Gallatin,90,US,1619311392,54,45.6666,-111.2008,11.0,3.6
484,Verkhnyaya Inta,100,RU,1619311392,75,65.9811,60.3094,4.04,4.55
485,Adrar,9,MR,1619311255,12,20.5022,-10.0711,26.01,4.3
486,Faanui,100,PF,1619311392,71,-16.4833,-151.75,26.57,4.23
487,Sechura,100,PE,1619311392,71,-5.5569,-80.8222,21.56,8.08
488,Santa Rosa,20,PH,1619311393,74,14.3122,121.1114,29.44,1.54
489,Adré,99,TD,1619311393,15,13.4667,22.2,27.9,5.3
490,Kānke,20,IN,1619311393,57,23.4333,85.3167,25.0,3.76
491,Mersin Province,0,TR,1619311393,42,36.862,34.6509,20.0,1.03
492,Esim,100,GH,1619311393,86,4.8699,-2.2405,26.65,3.77
493,Moussoro,15,TD,1619311394,36,13.6408,16.4901,28.04,3.51
494,Te Anau,13,NZ,1619311195,68,-45.4167,167.7167,8.51,4.07
495,Randers,2,DK,1619311394,80,56.4667,10.05,-0.56,1.54
496,Iturama,9,BR,1619311394,36,-19.7281,-50.1956,21.44,0.81
497,Beidao,100,CN,1619311394,82,34.5686,105.8933,10.67,0.98
498,Cañon City,40,US,1619311395,21,38.441,-105.2424,20.0,3.6
499,Thunder Bay,20,CA,1619311285,48,48.4001,-89.3168,3.0,2.57
500,Plettenberg Bay,72,ZA,1619311395,87,-34.0527,23.3716,16.51,0.95
501,Kemijärvi,100,FI,1619311395,89,66.7131,27.4306,-1.21,4.78
502,Bayir,75,TR,1619311395,55,37.2687,28.2167,19.0,2.57
503,Winnemucca,40,US,1619311351,21,40.973,-117.7357,16.0,9.26
504,Vao,100,NC,1619311330,70,-22.6667,167.4833,23.81,5.44
505,Vaasa,90,FI,1619311396,93,63.096,21.6158,0.0,8.75
506,Abu Dhabi,0,AE,1619311396,53,24.4667,54.3667,26.0,1.54
507,Dalian,0,CN,1619311396,47,38.9122,121.6022,12.0,4.0
508,Ilulissat,1,GL,1619311396,46,69.2167,-51.1,8.0,9.77
509,Itarema,96,BR,1619311397,87,-2.9248,-39.9167,25.67,4.24
510,Pechora,100,RU,1619311397,72,65.1472,57.2244,4.64,3.27
511,Denpasar,20,ID,1619311319,78,-8.65,115.2167,27.0,1.03
512,Olafsvik,100,IS,1619311331,92,64.8945,-23.7142,5.68,8.31
513,Kota Belud,20,MY,1619311397,74,6.351,116.4305,28.0,0.51
514,Bilibino,100,RU,1619311397,89,68.0546,166.4372,-1.4,1.75
515,Ruska Poliana,0,UA,1619311398,77,49.417,31.9201,1.39,3.38
516,Karpathos,100,GR,1619311398,82,35.507,27.2132,18.0,2.57
517,Baruun-Urt,100,MN,1619311398,19,46.6806,113.2792,10.23,5.92
518,Port Hueneme,1,US,1619311398,67,34.1478,-119.1951,16.11,7.72
519,Yarmouth,1,US,1619311351,44,41.7057,-70.2286,13.33,9.26
520,Mankera,2,PK,1619311399,26,31.3866,71.4407,25.22,1.86
521,Talaya,100,RU,1619311399,74,61.3833,152.75,-10.55,3.5
522,Liuhe,1,CN,1619311399,18,42.2401,125.7172,11.53,3.22
523,Tocaima,40,CO,1619311399,82,4.4582,-74.6343,15.0,2.06
524,Agüimes,40,ES,1619311400,82,27.9054,-15.4461,18.89,2.57
525,Sinnamary,100,GF,1619311400,87,5.3833,-52.95,25.66,5.65
526,Arecibo,2,PR,1619311400,82,18.4724,-66.7157,25.56,5.57
527,Mandalgovi,100,MN,1619311400,83,45.7625,106.2708,8.13,5.77
528,Nakhon Thai,83,TH,1619311401,100,17.1006,100.8374,29.44,0.78
529,Neuquén,0,AR,1619311401,82,-38.9516,-68.0591,13.0,2.04
530,Maniitsoq,98,GL,1619311401,68,65.4167,-52.9,3.3,2.41
531,Kalbay,40,PH,1619311401,74,5.7233,125.4986,27.0,1.54
532,Forestville,20,US,1619311402,93,38.8451,-76.875,12.22,1.54
533,Lázaro Cárdenas,98,MX,1619311402,67,17.9583,-102.2,26.51,3.4
534,Elizabeth City,90,US,1619311301,88,36.2946,-76.2511,14.44,4.63
535,Mineiros,5,BR,1619311402,49,-17.5694,-52.5511,18.66,2.12
536,Lapi,2,PH,1619311402,58,17.716,121.8978,27.91,2.02
537,Barcelos,40,PT,1619311403,94,41.5388,-8.6151,15.0,3.09
538,Huaraz,95,PE,1619311403,89,-9.5333,-77.5333,12.48,1.47
539,Fribourg,20,CH,1619311403,76,46.8024,7.1513,9.44,1.03
540,Darhan,100,MN,1619311403,94,49.4867,105.9228,3.75,2.8
541,Orcopampa,2,PE,1619311403,73,-15.2661,-72.3417,7.1,0.95
542,Knin,0,HR,1619311404,57,44.0439,16.2,10.0,2.06
543,Karaton,20,ID,1619311404,74,-6.3424,106.1045,30.0,2.57
544,Mirny,100,RU,1619311404,92,62.5353,113.9611,1.84,2.33
545,Cidreira,84,BR,1619311405,82,-30.1811,-50.2056,20.47,4.43
546,Vung Tau,13,VN,1619311405,72,10.346,107.0843,28.6,3.22
547,Peniche,38,PT,1619311405,89,39.3558,-9.3811,15.56,3.13
548,Keminmaa,90,FI,1619311405,93,65.8596,24.8228,0.0,6.69
549,Tonantins,99,BR,1619311405,97,-2.8731,-67.8022,23.67,0.88
550,Bayeux,40,BR,1619311406,94,-7.125,-34.9322,25.0,1.03
551,Anadyr,20,RU,1619311406,86,64.75,177.4833,1.0,4.0
552,Sioux Lookout,40,CA,1619311197,30,50.1001,-91.917,2.0,2.06
553,Miragoâne,5,HT,1619311406,76,18.4423,-73.0876,25.71,2.19
554,Bonavista,22,CA,1619311406,75,48.6499,-53.1147,4.0,3.09
555,Yangi Marg`ilon,1,UZ,1619311407,44,40.4272,71.7189,13.0,3.09
556,Nkoteng,96,CM,1619311407,98,4.5167,12.0333,20.48,0.12
557,Kloulklubed,75,PW,1619311407,74,7.0419,134.2556,30.0,6.69
558,Madruga,20,CU,1619311407,45,22.9114,-81.8561,30.0,3.6
559,Mirante do Paranapanema,0,BR,1619311408,53,-22.2919,-51.9064,22.0,2.06
560,Westonaria,0,ZA,1619311408,46,-26.3191,27.6486,13.33,2.57
561,Loíza,20,PR,1619311408,65,18.4313,-65.8802,26.0,4.12
562,Gainesville,15,US,1619311408,81,29.6516,-82.3248,25.0,0.89
