,City,Cloudiness,Country,Date,Humidity,Latitude,Longitude,Max Temp,Wind Speed
0,Thompson,75,CA,1619313930,46,55.7435,-97.8558,-3.0,3.6
1,Khani,100,GE,1619314086,93,41.9563,42.9566,8.0,1.03
2,Batagay-Alyta,100,RU,1619313992,72,67.8006,130.4114,-3.2,2.1
3,Binga,9,ZW,1619314086,68,-17.6203,27.3414,19.31,0.57
4,Kavieng,15,PG,1619313991,70,-2.5744,150.7967,29.39,4.54
5,Hay River,99,CA,1619314086,58,60.8156,-115.7999,-3.0,4.63
6,Saskylakh,100,RU,1619313983,94,71.9167,114.0833,-0.27,4.5
7,Barrow,1,US,1619313949,80,71.2906,-156.7887,-2.0,3.09
8,New Norfolk,92,AU,1619313924,83,-42.7826,147.0587,16.67,1.34
9,Cherskiy,100,RU,1619313949,83,68.75,161.3,-5.94,6.08
10,Rikitea,100,PF,1619313790,75,-23.1203,-134.9692,25.89,6.0
11,Port Elizabeth,90,ZA,1619313896,100,-33.918,25.5701,15.0,3.09
12,Mayya,40,RU,1619314086,74,61.7333,130.2811,-1.0,2.0
13,Yar-Sale,100,RU,1619314000,99,66.8333,70.8333,-3.12,2.2
14,Albany,100,US,1619313717,40,42.6001,-73.9662,13.33,0.81
15,Quimper,0,FR,1619314087,62,48.0,-4.1,12.0,5.66
16,Ushuaia,20,AR,1619313675,50,-54.8,-68.3,10.0,1.03
17,Puerto Ayora,100,EC,1619313921,87,-0.7393,-90.3518,24.41,2.99
18,Tuktoyaktuk,20,CA,1619313936,86,69.4541,-133.0374,-4.0,4.63
19,Qaanaaq,100,GL,1619313920,68,77.484,-69.3632,-3.8,3.56
20,George Town,20,MY,1619313723,89,5.4112,100.3354,28.0,2.06
21,Caravelas,0,BR,1619313794,88,-17.7125,-39.2481,23.1,2.06
22,Severo-Kuril'sk,100,RU,1619313977,97,50.6789,156.125,1.71,2.35
23,Bethel,1,US,1619313950,36,41.3712,-73.414,15.0,4.12
24,Castro,98,BR,1619313937,77,-24.7911,-50.0119,15.1,1.22
25,Saint-Philippe,75,RE,1619313933,78,-21.3585,55.7679,25.0,10.29
26,East London,99,ZA,1619313677,78,-33.0153,27.9116,17.93,2.25
27,Maceió,75,BR,1619313839,94,-9.6658,-35.7353,24.0,1.54
28,São João da Barra,6,BR,1619314008,84,-21.6403,-41.0511,21.95,1.06
29,Pirajuí,0,BR,1619314087,56,-21.9986,-49.4572,23.0,2.57
30,Pavino,100,RU,1619314088,90,59.1139,46.1414,5.65,4.37
31,Dikson,68,RU,1619313924,97,73.5069,80.5464,-14.92,3.17
32,Kirakira,100,SB,1619314088,69,-10.4544,161.9205,29.28,0.65
33,Fortuna,1,US,1619313749,66,40.5982,-124.1573,13.89,4.12
34,Grand-Santi,100,GF,1619314088,99,4.25,-54.3833,23.11,0.9
35,Ancud,90,CL,1619313772,100,-41.8697,-73.8203,12.78,1.03
36,Ponta do Sol,93,PT,1619313933,85,32.6667,-17.1,13.89,2.24
37,Kisanga,100,TZ,1619314031,98,-7.4362,37.7034,22.63,1.53
38,Alice,1,US,1619314089,23,27.7523,-98.0697,31.0,4.12
39,Baykit,100,RU,1619314089,91,61.67,96.37,3.18,1.11
40,Punta Arenas,0,CL,1619313930,66,-53.15,-70.9167,8.0,5.66
41,Busselton,0,AU,1619313678,75,-33.65,115.3333,19.25,0.38
42,Cape Town,0,ZA,1619313662,88,-33.9258,18.4232,15.56,1.03
43,Jamestown,90,US,1619313927,47,42.097,-79.2353,12.0,4.12
44,Bluff,94,NZ,1619313934,77,-46.6,168.3333,7.78,7.15
45,Votkinsk,100,RU,1619314089,95,57.0486,53.9872,5.56,2.24
46,Bambous Virieux,75,MU,1619313931,78,-20.3428,57.7575,26.0,7.72
47,Atuona,90,PF,1619313922,72,-9.8,-139.0333,27.09,6.99
48,Žlutice,0,CZ,1619314090,69,50.0919,13.163,1.0,1.54
49,Kiama,7,AU,1619314090,67,-34.6833,150.8667,19.44,0.89
50,Mujiayingzi,100,CN,1619314090,55,42.1167,118.7833,9.17,1.43
51,Vaini,75,TO,1619313688,74,-21.2,-175.2,29.0,2.06
52,Carnarvon,0,AU,1619313938,43,-24.8667,113.6333,24.0,3.6
53,Cuauhtémoc,0,MX,1619314090,7,28.4167,-106.8667,21.67,1.79
54,Souillac,75,MU,1619313954,78,-20.5167,57.5167,26.0,7.72
55,Lompoc,100,US,1619313930,67,34.6391,-120.4579,14.0,4.12
56,Lebu,0,CL,1619313951,81,-37.6167,-73.65,12.36,7.11
57,Saint-Pierre,75,RE,1619314011,78,-21.3393,55.4781,25.0,10.29
58,Chui,94,UY,1619313716,93,-33.6971,-53.4616,18.17,3.82
59,Machinga,11,MW,1619314091,93,-15.1685,35.3,16.55,1.12
60,Gujrat,0,PK,1619313898,77,32.5728,74.079,18.0,1.87
61,Klaksvík,100,FO,1619313687,81,62.2266,-6.589,6.0,2.18
62,Keti Bandar,0,PK,1619314091,75,24.1447,67.4497,26.81,4.16
63,Avarua,75,CK,1619313922,74,-21.2078,-159.775,28.0,6.17
64,Las Lomas,40,PA,1619314091,89,8.4333,-82.4,28.89,1.03
65,Katsuura,75,JP,1619314012,56,35.1333,140.3,20.0,4.63
66,Mar del Plata,40,AR,1619313925,88,-38.0023,-57.5575,13.89,1.54
67,Buritizeiro,0,BR,1619314092,45,-17.3511,-44.9622,21.56,1.51
68,Ilulissat,1,GL,1619313969,46,69.2167,-51.1,8.0,11.83
69,Āsosa,100,ET,1619314092,67,10.0667,34.5333,19.28,1.17
70,Butaritari,49,KI,1619313706,76,3.0707,172.7902,27.98,4.91
71,Port Hardy,75,CA,1619313947,87,50.6996,-127.4199,10.0,1.54
72,Lagoa,57,PT,1619314092,80,39.05,-27.9833,14.97,10.57
73,Bredasdorp,100,ZA,1619313690,93,-34.5322,20.0403,9.0,1.54
74,Arraial do Cabo,13,BR,1619313919,80,-22.9661,-42.0278,23.24,3.38
75,Yelat'ma,100,RU,1619314093,96,54.9675,41.7508,1.96,5.66
76,Fukuechō,20,JP,1619314093,68,32.6881,128.8419,20.0,7.72
77,Longkou,98,CN,1619314093,70,37.6508,120.3286,10.3,6.13
78,Hobart,75,AU,1619313926,55,-42.8794,147.3294,16.67,5.66
79,Caucaia,75,BR,1619314070,78,-3.7361,-38.6531,28.0,3.6
80,Ucluelet,90,CA,1619314093,87,48.9329,-125.5528,9.44,2.57
81,Sitka,20,US,1619313917,21,57.0531,-135.33,16.0,3.6
82,Werda,0,BW,1619314094,29,-25.2667,23.2833,18.4,1.59
83,Itacoatiara,99,BR,1619314094,92,-3.1431,-58.4442,24.79,1.26
84,Hermanus,100,ZA,1619313948,79,-34.4187,19.2345,17.78,2.24
85,Mahanoro,57,MG,1619314094,93,-19.9,48.8,21.49,3.26
86,Evensk,100,RU,1619313776,87,61.95,159.2333,-2.79,5.16
87,Winfield,1,US,1619313805,39,37.2398,-96.9956,18.0,1.02
88,Mataura,56,NZ,1619313924,77,-46.1927,168.8643,7.78,7.15
89,Pangody,100,RU,1619314095,94,65.85,74.4859,-1.51,2.03
90,Cayenne,75,GF,1619314095,94,4.9333,-52.3333,26.11,1.03
91,San Jose,90,US,1619313882,45,37.3394,-121.895,18.0,6.69
92,São Miguel do Araguaia,7,BR,1619314095,65,-13.275,-50.1628,24.25,0.97
93,São Filipe,7,CV,1619313756,73,14.8961,-24.4956,22.57,4.86
94,Provideniya,100,RU,1619313942,72,64.3833,-173.3,4.35,0.78
95,Carutapera,100,BR,1619314095,88,-1.195,-46.02,24.94,1.94
96,Port Alfred,95,ZA,1619313683,82,-33.5906,26.891,18.14,3.45
97,Bandarbeyla,16,SO,1619313916,77,9.4942,50.8122,27.96,2.85
98,Kaitangata,97,NZ,1619313925,49,-46.2817,169.8464,11.67,5.36
99,Tawang Town,100,IN,1619314096,49,27.5833,91.8667,9.87,0.65
100,Farafenni,11,GM,1619314096,33,13.5667,-15.6,25.21,5.12
101,Rosignol,100,GY,1619314096,93,6.2833,-57.5333,23.91,2.51
102,Bogorodskoye,100,RU,1619314096,85,56.55,37.8833,0.63,6.69
103,Berlevåg,100,NO,1619314097,76,70.8578,29.0864,1.0,7.88
104,Leningradskiy,100,RU,1619313764,84,69.3833,178.4167,0.04,0.73
105,Yellowknife,75,CA,1619313881,49,62.456,-114.3525,-8.0,6.17
106,Tasiilaq,75,GL,1619313931,65,65.6145,-37.6368,6.0,8.23
107,Iqaluit,75,CA,1619313796,86,63.7506,-68.5145,0.0,2.06
108,San Patricio,20,US,1619313918,28,28.017,-97.5169,28.33,4.63
109,Gobabis,3,NA,1619314097,29,-22.45,18.9667,15.24,3.8
110,Batemans Bay,61,AU,1619313972,53,-35.7167,150.1833,18.89,1.27
111,Miles City,1,US,1619314097,37,46.4083,-105.8406,11.0,5.14
112,Nanortalik,100,GL,1619313973,75,60.1432,-45.2371,4.72,6.82
113,Hamilton,90,US,1619313311,93,39.1834,-84.5333,11.11,1.54
114,Xinmin,0,CN,1619314098,30,41.9908,122.8253,13.33,6.0
115,La Ronge,100,CA,1619313941,50,55.1001,-105.2842,-1.0,3.09
116,Cabo San Lucas,1,MX,1619313955,24,22.8909,-109.9124,26.11,3.6
117,Torbay,1,CA,1619313919,93,47.6666,-52.7314,3.89,5.66
118,Jaru,43,BR,1619314098,93,-10.4389,-62.4664,23.21,0.63
119,Chokurdakh,0,RU,1619313941,79,70.6333,147.9167,-11.36,3.12
120,Del Rio,1,US,1619313851,12,29.3627,-100.8968,33.0,1.54
121,Nikolskoye,100,RU,1619313921,93,59.7035,30.7861,2.22,2.0
122,Portel,92,BR,1619314098,94,-1.9356,-50.8211,24.14,1.58
123,Namatanai,33,PG,1619313790,68,-3.6667,152.4333,29.38,3.88
124,Vardø,100,NO,1619313929,74,70.3705,31.1107,1.77,9.28
125,Shingū,40,JP,1619314099,68,33.7333,135.9833,20.0,4.63
126,Ribeira Grande,87,PT,1619313934,73,38.5167,-28.7,15.36,9.08
127,Derzhavīnsk,70,KZ,1619314099,51,51.1,66.3167,6.15,7.08
128,Khatanga,100,RU,1619314000,92,71.9667,102.5,-0.58,9.03
129,Arlit,8,NE,1619314099,13,18.7369,7.3853,31.05,3.45
130,Bereda,100,ES,1619313968,100,43.2686,-7.5406,12.78,0.45
131,Cidreira,84,BR,1619313879,82,-30.1811,-50.2056,20.47,4.43
132,Mahon,40,ES,1619314099,94,39.8885,4.2658,14.0,3.6
133,San Policarpo,76,PH,1619314100,77,12.1791,125.5072,27.2,2.63
134,Praia da Vitória,75,PT,1619313932,88,38.7333,-27.0667,14.0,11.45
135,Tiksi,100,RU,1619313957,92,71.6872,128.8694,0.23,5.07
136,Nieuw Amsterdam,40,SR,1619314100,94,5.8833,-55.0833,25.0,3.09
137,Guanay,83,BO,1619314100,98,-15.4975,-67.8797,22.24,0.31
138,Lavrentiya,93,RU,1619314013,93,65.5833,-171.0,0.78,0.93
139,Vilhena,15,BR,1619314101,95,-12.7406,-60.1458,20.92,1.1
140,Port Hawkesbury,90,CA,1619314101,81,45.6169,-61.3485,4.44,1.03
141,Rameswaram,85,IN,1619314101,75,9.2833,79.3,28.8,4.26
142,Sibu,40,MY,1619314101,83,2.3,111.8167,28.0,1.54
143,Codrington,32,AU,1619314011,71,-38.2667,141.9667,15.6,3.74
144,Oddur,89,SO,1619314101,81,4.1213,43.8894,23.5,3.87
145,Rawson,0,AR,1619313962,59,-43.3002,-65.1023,13.94,4.58
146,Santo Tomas,20,PH,1619314102,74,14.1079,121.1414,30.0,3.09
147,Cockburn Town,40,TC,1619314015,73,21.4612,-71.1419,26.0,5.14
148,Lata,20,PT,1619313764,88,40.1629,-8.3327,15.0,1.54
149,Lorengau,16,PG,1619313948,72,-2.0226,147.2712,28.68,2.29
150,Nālūt,5,LY,1619314102,59,30.3333,10.85,14.95,6.86
151,Nicoya,99,CR,1619314102,71,10.1483,-85.452,27.75,1.35
152,Chumikan,94,RU,1619313928,47,54.7183,135.315,1.92,4.46
153,Broome,1,US,1619314103,35,42.2506,-75.833,13.0,3.6
154,Ankang,100,CN,1619313984,92,32.68,109.0172,12.77,1.41
155,Disna,26,BY,1619314103,88,55.568,28.1971,-1.62,4.83
156,Northam,0,GB,1619314006,67,51.0333,-4.2167,8.33,1.34
157,Sobradinho,6,BR,1619314103,97,-12.8333,-39.1,22.07,0.86
158,Hilo,90,US,1619313926,78,19.7297,-155.09,23.0,3.09
159,Asău,100,RO,1619314026,56,46.4333,26.4,6.11,1.39
160,Galesong,0,ID,1619313946,78,-5.3166,119.3661,28.0,1.03
161,Chiredzi,0,ZW,1619313951,59,-21.05,31.6667,17.39,2.68
162,Río Gallegos,0,AR,1619313942,81,-51.6226,-69.2181,7.0,1.54
163,Rāmgarh,0,IN,1619314104,39,23.6333,85.5167,28.0,2.06
164,Akdepe,0,TM,1619314104,50,42.0551,59.3788,11.0,2.06
165,Kaniama,100,CD,1619314104,95,-7.5667,24.1833,18.3,1.92
166,Rawlins,75,US,1619314104,28,41.7911,-107.2387,12.0,8.75
167,Pevek,100,RU,1619313962,94,69.7008,170.3133,-3.05,3.57
168,Narsaq,75,GL,1619313975,30,60.9167,-46.05,12.0,14.92
169,Port Hedland,0,AU,1619313924,17,-20.3167,118.5667,30.0,9.26
170,Olhão,40,PT,1619314105,94,37.0286,-7.8411,17.0,6.69
171,Moose Factory,90,CA,1619314105,68,51.2585,-80.6094,-5.0,4.12
172,Kedrovyy,75,RU,1619314105,93,56.1667,91.8167,0.0,4.0
173,Fürstenfeld,100,AT,1619314105,14,47.05,16.0833,7.78,0.5
174,Saint Paul Harbor,90,US,1619313718,87,57.79,-152.4072,6.0,4.12
175,Husavik,0,IS,1619313975,93,66.0449,-17.3389,4.0,3.09
176,Xining,100,CN,1619314010,97,36.6167,101.7667,3.96,0.17
177,Aklavik,15,CA,1619313954,48,68.2191,-135.0107,5.0,4.12
178,Norman Wells,75,CA,1619313928,36,65.282,-126.8329,7.0,4.12
179,Zarand,100,IR,1619314106,41,30.8127,56.564,19.07,3.88
180,Zhangjiakou,100,CN,1619314106,58,40.81,114.8794,13.39,4.55
181,Bengkulu,72,ID,1619313959,78,-3.8004,102.2655,25.87,1.05
182,Khipro,0,PK,1619314106,27,25.8285,69.3772,27.41,2.35
183,Yueyang,100,CN,1619314107,91,29.3333,113.0919,14.32,5.78
184,Qufu,100,CN,1619314107,62,35.5967,116.9911,14.95,3.82
185,Upernavik,8,GL,1619313923,84,72.7868,-56.1549,-4.47,2.99
186,Honningsvåg,100,NO,1619314008,70,70.9821,25.9704,0.28,7.49
187,Brae,100,GB,1619314107,75,60.3964,-1.353,4.0,1.54
188,Tataouine,5,TN,1619314107,76,32.9297,10.4518,13.0,1.54
189,Mareeba,75,AU,1619314040,94,-17.0,145.4333,25.0,2.57
190,Kahului,40,US,1619313798,65,20.8947,-156.47,27.0,10.8
191,Mogadishu,75,SO,1619313920,76,2.0371,45.3438,28.12,5.15
192,Samarkand,33,UZ,1619314108,58,39.6542,66.9597,12.0,1.03
193,São Félix do Xingu,100,BR,1619314108,96,-6.6447,-51.995,22.81,0.45
194,Ambon City,40,ID,1619314108,62,-3.6954,128.1814,32.0,2.57
195,Faanui,100,PF,1619314002,71,-16.4833,-151.75,26.57,4.23
196,Naze,20,JP,1619314081,57,28.3667,129.4833,24.0,7.72
197,Bowen,90,AU,1619313937,78,-20.0167,148.2333,25.0,6.69
198,Atambua,34,ID,1619314109,64,-9.1061,124.8925,26.67,1.96
199,Boyolangu,0,ID,1619314109,71,-8.1181,111.8935,26.67,0.82
200,Avera,90,US,1619314109,87,33.194,-82.5271,18.0,3.09
201,Chingirlau,36,KZ,1619314109,92,51.095,54.0814,7.68,6.34
202,Hofn,100,IS,1619313959,89,64.2539,-15.2082,7.25,1.8
203,Wanaka,30,NZ,1619314110,71,-44.7,169.15,10.79,2.36
204,Arkhipo-Osipovka,93,RU,1619314110,57,44.37,38.52,7.8,4.96
205,Kapaa,75,US,1619313699,69,22.0752,-159.319,26.0,6.69
206,Guerrero Negro,5,MX,1619313945,71,27.9769,-114.0611,16.6,8.92
207,Gayéri,10,BF,1619314110,18,12.6497,0.4931,31.61,3.89
208,Haines Junction,18,CA,1619313951,18,60.7522,-137.5108,14.0,2.57
209,Antón Lizardo,20,MX,1619314110,69,19.05,-95.9833,28.33,9.77
210,Viedma,83,AR,1619314025,66,-40.8135,-62.9967,14.04,2.93
211,Esperance,64,AU,1619313695,52,-33.8667,121.9,20.0,8.75
212,Eureka,100,US,1619313969,74,40.8021,-124.1637,11.67,3.58
213,High Level,75,CA,1619314111,52,58.5169,-117.136,4.0,2.57
214,Irtyshskiy,100,RU,1619314111,56,58.3333,68.1333,5.57,3.74
215,Hithadhoo,5,MV,1619313715,68,-0.6,73.0833,28.33,3.21
216,Cortez,1,US,1619314111,14,37.3489,-108.5859,19.0,6.69
217,Münchenstein,0,CH,1619314112,57,47.5138,7.6243,8.0,2.06
218,Goderich,100,CA,1619313979,54,43.7501,-81.7165,11.0,4.63
219,Los Llanos de Aridane,75,ES,1619314112,49,28.6585,-17.9182,20.0,4.63
220,Clyde River,90,CA,1619313932,93,70.4692,-68.5914,-8.0,1.54
221,Itaueira,38,BR,1619314112,86,-7.6033,-43.0256,23.44,1.32
222,Bagé,20,BR,1619314112,94,-31.3314,-54.1069,17.0,2.57
223,Comodoro Rivadavia,0,AR,1619314084,82,-45.8667,-67.5,12.0,3.37
224,Hong Kong,100,HK,1619313656,85,22.2855,114.1577,25.56,0.89
225,Bambanglipuro,9,ID,1619314017,71,-7.95,110.2833,26.87,1.15
226,Camacha,20,PT,1619313952,77,33.0833,-16.3333,17.0,5.66
227,Sambava,90,MG,1619313994,90,-14.2667,50.1667,23.57,4.88
228,Sokoni,68,TZ,1619314113,88,-6.4333,39.55,25.09,3.55
229,Qui Nhon,1,VN,1619314094,65,13.7667,109.2333,29.35,0.37
230,Chlórakas,67,CY,1619314113,72,34.8042,32.4083,15.0,2.57
231,Kouroussa,100,GN,1619314113,59,10.65,-9.8833,26.86,3.42
232,Witu,100,KE,1619314114,88,-2.3889,40.4382,25.11,2.01
233,Salisbury,0,GB,1619314114,65,51.0693,-1.7957,6.0,4.63
234,Muzhi,94,RU,1619314007,92,65.3667,64.6667,-0.16,2.49
235,Saint George,1,US,1619313946,11,37.1041,-113.5841,26.67,8.75
236,Hanko,70,FI,1619314114,83,59.8333,22.95,1.11,0.89
237,Pisco,0,PE,1619313986,88,-13.7,-76.2167,20.0,5.14
238,Hambantota,20,LK,1619314069,100,6.1241,81.1185,24.0,0.51
239,Grand Gaube,100,MU,1619313967,85,-20.0064,57.6608,24.44,3.13
240,Letka,100,RU,1619314115,94,59.6011,49.4232,5.38,3.75
241,Egvekinot,100,RU,1619313994,97,66.3167,-179.1667,-2.43,2.17
242,Ruteng,22,ID,1619314115,69,-8.6136,120.4721,21.64,0.79
243,Roald,90,NO,1619314115,100,62.5833,6.1333,1.0,1.54
244,Kumul,100,CN,1619314115,46,42.8,93.45,4.04,8.61
245,Marawi,50,PH,1619313761,76,7.9986,124.2928,28.89,2.68
246,Celestún,92,MX,1619314076,74,20.8667,-90.4,27.55,5.87
247,Sinnamary,100,GF,1619313948,87,5.3833,-52.95,25.66,5.65
248,Bilma,0,NE,1619314116,12,18.6853,12.9164,29.48,2.88
249,Kaeo,11,NZ,1619314073,61,-35.1,173.7833,21.11,4.02
250,Tura,1,IN,1619314116,34,25.5198,90.2201,26.76,1.47
251,Iguape,3,BR,1619314116,88,-24.7081,-47.5553,20.81,1.39
252,Dzilam González,43,MX,1619314116,48,21.2833,-88.9333,29.49,4.6
253,Ahipara,9,NZ,1619313965,54,-35.1667,173.1667,18.35,4.04
254,Zhigansk,100,RU,1619314117,99,66.7697,123.3711,0.93,3.0
255,Yangi Marg`ilon,1,UZ,1619313959,47,40.4272,71.7189,13.0,4.12
256,Chennai,40,IN,1619313874,83,13.0878,80.2785,28.0,3.34
257,Baoqing,0,CN,1619314117,23,46.3317,132.2111,6.93,8.62
258,Coahuayana Viejo,56,MX,1619313969,71,18.7333,-103.6833,25.62,1.71
259,Kismayo,96,SO,1619314117,75,-0.3582,42.5454,27.27,3.86
260,Eldoret,75,KE,1619314117,88,0.5204,35.2699,16.0,3.6
261,Soyo,78,AO,1619314118,84,-6.1349,12.3689,25.81,1.99
262,Mombetsu,75,JP,1619314118,93,44.3525,143.3525,1.0,3.09
263,Vågåmo,46,NO,1619314118,88,61.8751,9.0967,-6.77,3.4
264,Tārāpur,100,IN,1619314118,70,19.85,72.7,27.39,0.92
265,Cabadiangan,86,PH,1619314119,70,9.7531,122.4739,28.87,2.32
266,Mayo,90,US,1619313919,82,38.8876,-76.5119,12.22,1.54
267,Kichera,100,RU,1619314119,70,55.9375,110.0997,4.54,0.64
268,Road Town,40,VG,1619314025,78,18.4167,-64.6167,26.11,4.12
269,Anáhuac,1,MX,1619314119,9,27.2333,-100.15,34.0,4.48
270,Teodoro Sampaio,100,BR,1619314119,54,-22.5325,-52.1675,20.64,1.75
271,Gambēla,99,ET,1619314120,71,8.25,34.5833,24.28,1.2
272,Kruisfontein,41,ZA,1619313927,94,-34.0033,24.7314,14.44,0.89
273,Ambunti,80,PG,1619314120,92,-4.2365,142.8448,25.87,0.82
274,Nova Olímpia,55,BR,1619314120,70,-14.7972,-57.2881,25.9,1.38
275,General Roca,0,AR,1619313956,93,-39.0333,-67.5833,11.0,2.44
276,Krasnovishersk,100,RU,1619314120,84,60.4078,57.082,4.67,4.6
277,Tezu,7,IN,1619313996,18,27.9167,96.1667,28.64,0.52
278,Sapele,100,NG,1619314121,86,5.8941,5.6767,24.36,0.5
279,Isiro,100,CD,1619314121,98,2.7739,27.616,19.04,0.08
280,Blackwater,0,AU,1619314121,34,-23.5833,148.8833,25.22,3.36
281,Geraldton,96,AU,1619313955,41,-28.7667,114.6,24.0,3.6
282,Durango,100,MX,1619313842,8,24.8333,-104.8333,22.69,4.45
283,Wanning,44,CN,1619314122,77,18.8003,110.3967,28.2,4.51
284,Coquimbo,0,CL,1619314122,77,-29.9533,-71.3436,14.0,1.54
285,Muroto-misakicho,40,JP,1619314122,43,33.2833,134.15,23.0,7.2
286,Vizinga,100,RU,1619314122,93,61.0749,50.1031,5.79,3.85
287,Fairbanks,1,US,1619313939,20,64.8378,-147.7164,17.0,2.06
288,Tibacuy,85,CO,1619314123,63,4.3511,-72.4564,29.0,2.62
289,Sept-Îles,20,CA,1619313842,81,50.2001,-66.3821,5.56,4.63
290,Sinop Province,100,TR,1619314123,93,41.7711,34.8709,7.03,1.66
291,Waipawa,5,NZ,1619314123,51,-41.4122,175.5153,17.0,7.72
292,Kaduna,100,NG,1619314123,67,10.5222,7.4383,24.61,4.22
293,Port Blair,40,IN,1619314113,83,11.6667,92.75,26.0,1.03
294,Yizheng,21,CN,1619314124,58,24.6706,103.4296,19.92,1.56
295,Manokwari,100,ID,1619314124,88,-0.8667,134.0833,25.26,1.31
296,Kharan,0,PK,1619314124,39,28.5833,65.4167,23.08,1.5
297,Americus,40,US,1619313896,88,32.0724,-84.2327,20.0,4.12
298,Porto Walter,40,BR,1619314124,90,-8.2686,-72.7439,23.49,1.0
299,Meulaboh,79,ID,1619313727,83,4.1363,96.1285,24.95,1.14
300,Bontang,100,ID,1619314124,72,0.1333,117.5,28.02,1.95
301,Opuwo,64,NA,1619314125,50,-18.0607,13.84,20.02,1.1
302,Vestmannaeyjar,100,IS,1619314125,89,63.4427,-20.2734,6.93,9.66
303,Aykhal,100,RU,1619313922,89,66.0,111.5,-1.41,2.9
304,Ambilobe,90,MG,1619314125,92,-13.2,49.05,21.91,1.31
305,Mikumi,100,TZ,1619314125,98,-7.4041,36.9831,21.0,1.65
306,Kinablangan,40,PH,1619314126,62,7.6947,126.5503,29.6,1.34
307,Kiryat Gat,17,IL,1619314005,100,31.61,34.7642,17.78,0.89
308,Praia,12,CV,1619314126,78,14.9215,-23.5087,21.42,6.02
309,Pacifica,75,US,1619314126,67,37.6138,-122.4869,14.0,7.72
310,Osypenko,100,UA,1619314023,100,46.9136,36.8253,5.0,2.24
311,Varkala,20,IN,1619314126,83,8.7341,76.7067,28.0,1.03
312,Were Īlu,71,ET,1619314127,82,10.6,39.4333,11.85,2.56
313,Ponca City,1,US,1619314072,45,36.707,-97.0856,19.0,1.54
314,Tyukhtet,100,RU,1619314127,98,56.5389,89.3011,0.7,3.82
315,Nortelândia,100,BR,1619314127,63,-14.4547,-56.8028,27.06,1.2
316,Walvis Bay,96,NA,1619314118,100,-22.9575,14.5053,15.56,1.54
317,Hasaki,75,JP,1619314014,56,35.7333,140.8333,20.0,4.63
318,Vila Franca do Campo,40,PT,1619313973,88,37.7167,-25.4333,14.0,8.23
319,Nhulunbuy,75,AU,1619313915,74,-12.2333,136.7667,30.0,5.66
320,Kununurra,100,AU,1619313786,26,-15.7667,128.7333,28.0,6.69
321,Sur,0,OM,1619314002,39,22.5667,59.5289,28.6,2.73
322,San Luis,0,AR,1619314128,66,-33.295,-66.3356,13.28,4.35
323,Purwodadi Grobogan,40,ID,1619314128,89,-7.0868,110.9158,26.0,2.57
324,São Gabriel da Cachoeira,87,BR,1619314128,95,-0.1303,-67.0892,23.59,0.31
325,Nukus,0,UZ,1619314128,49,42.4531,59.6103,9.0,2.06
326,Macklin,81,CA,1619314129,17,52.3334,-109.9348,9.0,2.57
327,Newport,1,GB,1619313991,70,51.5877,-2.9984,9.0,5.14
328,Poros,80,GR,1619314129,100,37.4994,23.4536,14.44,0.89
329,Promyshlennovskiy,0,RU,1619314129,30,55.4833,86.2,3.0,3.0
330,Talnakh,100,RU,1619313691,95,69.4865,88.3972,-9.92,3.98
331,Along,100,IN,1619313994,57,28.1667,94.7667,22.23,0.69
332,Bodden Town,20,KY,1619314129,74,19.2833,-81.25,27.22,2.57
333,Florianópolis,0,BR,1619313843,83,-27.6146,-48.5012,23.89,2.06
334,La Rioja,20,ES,1619314130,87,42.25,-2.5,12.22,3.09
335,Constitución,0,CL,1619313935,67,-35.3333,-72.4167,13.91,4.08
336,Kavaratti,11,IN,1619313964,69,10.5669,72.642,29.12,5.01
337,Menongue,96,AO,1619314130,56,-14.6585,17.691,14.78,1.05
338,Isangel,75,VU,1619313951,66,-19.55,169.2667,31.0,2.57
339,Hermiston,1,US,1619314130,36,45.8404,-119.2895,17.0,6.17
340,Kon Tum,4,VN,1619314131,73,14.35,108.0,26.36,0.5
341,Molina de Segura,100,ES,1619314131,75,38.0546,-1.2076,15.56,1.34
342,Marsabit,69,KE,1619314131,72,2.3284,37.9899,19.48,5.19
343,Kyren,100,RU,1619314131,79,51.6828,102.1408,2.75,0.45
344,Oskarshamn,100,SE,1619314131,69,57.2645,16.4484,2.22,3.09
345,Forrest City,75,US,1619314109,82,35.0081,-90.7898,15.0,2.57
346,Mehamn,100,NO,1619314132,79,71.0357,27.8492,0.03,8.14
347,Nuevo Progreso,100,MX,1619314132,90,23.1667,-97.95,25.56,3.13
348,Mossamedes,75,AO,1619313966,79,-15.1961,12.1522,25.36,0.9
349,Darnah,7,LY,1619314132,85,32.767,22.6367,16.17,12.25
350,Minna,100,NG,1619314133,72,9.6139,6.5569,25.48,4.46
351,Peru,90,US,1619313997,100,40.7537,-86.0689,10.0,2.06
352,Kanchanaburi,98,TH,1619314133,82,14.6333,99.1,26.37,1.78
353,Ridge,1,US,1619313900,50,40.894,-72.8959,13.0,3.6
354,Abbeville,100,FR,1619314133,83,50.1,1.8333,5.56,5.03
355,Preobrazheniye,65,RU,1619313967,42,42.9019,133.9064,8.68,5.72
356,Lishu,10,CN,1619314133,15,43.3047,124.3278,12.92,2.42
357,Båtsfjord,100,NO,1619314134,90,70.6345,29.7185,0.31,6.59
358,Ternate,18,ID,1619314134,73,0.8,127.4,28.73,3.16
359,Garmsār,33,IR,1619314134,46,35.2182,52.3409,20.85,1.11
360,Nur-Sultan,0,KZ,1619314134,45,51.1801,71.446,4.0,6.0
361,Bensonville,100,LR,1619314135,91,6.4461,-10.6125,24.8,1.52
362,Kautokeino,100,NO,1619314135,89,69.0125,23.0412,-9.69,3.53
363,Manzhouli,100,CN,1619314135,17,49.6,117.4333,11.37,3.38
364,Airai,10,TL,1619313707,59,-8.9266,125.4092,20.63,1.67
365,Moussoro,15,TD,1619314135,36,13.6408,16.4901,28.04,3.51
366,Tutóia,99,BR,1619314103,89,-2.7619,-42.2744,25.33,4.06
367,Pangnirtung,44,CA,1619313704,80,66.1451,-65.7125,-2.84,3.24
368,Poum,100,NC,1619313988,79,-20.2333,164.0167,25.69,3.63
369,Ferrol,100,ES,1619314136,100,43.4832,-8.2369,14.0,2.06
370,Longyearbyen,75,SJ,1619313987,80,78.2186,15.6401,-5.0,1.47
371,Arkul',100,RU,1619314136,95,57.2808,50.044,5.69,4.78
372,Quartucciu,0,IT,1619314136,93,39.2519,9.1794,14.44,1.54
373,Timrå,20,SE,1619314136,48,62.487,17.3257,2.0,7.2
374,Rundu,0,NA,1619314137,44,-17.9333,19.7667,14.91,2.26
375,Mahrīz,40,IR,1619314137,28,31.5917,54.4318,23.0,1.03
376,Nome,1,US,1619313995,61,64.5011,-165.4064,6.0,1.64
377,Saldanha,100,ZA,1619313710,88,-33.0117,17.9442,15.0,3.6
378,Hurricane,1,US,1619313920,11,37.1753,-113.2899,26.67,8.75
379,Garoowe,52,SO,1619314137,75,8.4054,48.4845,25.03,4.13
380,Yulara,0,AU,1619314137,32,-25.2406,130.9889,21.0,9.26
381,Varadero,20,CU,1619314138,65,23.1536,-81.2514,27.0,2.57
382,Makakilo City,75,US,1619313962,47,21.3469,-158.0858,28.0,4.12
383,Awjilah,0,LY,1619314026,82,29.1081,21.2869,16.23,8.41
384,Calabozo,97,VE,1619314138,34,8.9242,-67.4293,33.49,4.66
385,Belmonte,20,BR,1619313960,83,-15.8631,-38.8828,25.0,2.57
386,Srandakan,10,ID,1619313943,71,-7.9386,110.2506,26.99,1.15
387,Formosa,0,AR,1619314055,100,-26.1775,-58.1781,19.0,1.03
388,Noumea,90,NC,1619313947,69,-22.2763,166.4572,27.22,4.63
389,Krotovka,58,RU,1619314139,81,53.2858,51.1686,5.64,6.88
390,Jiuquan,0,CN,1619314139,26,39.7432,98.5174,13.1,4.12
391,Cabañas,20,CU,1619314139,78,22.9758,-82.9219,26.0,2.06
392,Beringovskiy,100,RU,1619314020,93,63.05,179.3167,0.27,1.32
393,Flinders,3,AU,1619313963,66,-34.5833,150.8552,20.0,1.34
394,Juneau,20,US,1619314139,18,58.3019,-134.4197,16.0,4.12
395,Khowst,1,AF,1619314140,43,33.3833,69.8833,16.5,0.77
396,Weligama,17,LK,1619313841,87,5.9667,80.4167,25.24,1.23
397,Killybegs,42,IE,1619314140,72,54.6333,-8.45,7.31,3.36
398,Petropavlovsk-Kamchatskiy,75,RU,1619314140,93,53.0452,158.6483,2.0,2.0
399,Gorom-Gorom,63,BF,1619314140,8,14.4439,-0.2361,31.3,4.03
400,Rybnaya Sloboda,75,RU,1619314141,87,55.4613,50.1409,5.0,8.0
401,Mabaruma,57,GY,1619314141,94,8.2,-59.7833,23.0,1.78
402,Dzhebariki-Khaya,100,RU,1619314015,86,62.2167,135.8,-3.77,1.07
403,Liuhe,1,CN,1619314123,18,42.2401,125.7172,11.53,3.22
404,Krutinka,100,RU,1619314141,56,56.0055,71.5113,4.39,5.15
405,Ajaigarh,93,IN,1619314141,12,24.9,80.2667,27.11,0.96
406,Faya,0,SA,1619314016,72,18.3851,42.4509,16.0,2.29
407,Naryan-Mar,92,RU,1619314142,85,67.6713,53.087,2.72,4.02
408,Tricase,0,IT,1619314142,93,39.9304,18.3553,11.11,4.63
409,Makokou,84,GA,1619313918,95,0.5738,12.8642,19.44,0.26
410,Andenes,90,NO,1619313959,86,69.3143,16.1194,0.0,4.12
411,Kungurtug,100,RU,1619314142,81,50.5994,97.5228,-3.64,0.32
412,Lethem,100,GY,1619314142,88,3.3803,-59.7968,23.92,7.51
413,Kodinsk,100,RU,1619314004,99,58.6881,99.1844,1.55,1.08
414,Ordzhonīkīdze,87,KZ,1619314143,74,52.4411,61.7408,6.27,4.36
415,Belyy Yar,0,RU,1619314110,48,53.6039,91.3903,4.0,4.0
416,Yatou,83,CN,1619314143,57,37.15,122.3833,13.93,5.98
417,Port Macquarie,0,AU,1619314135,53,-31.4333,152.9167,22.78,1.79
418,Gamboula,72,CF,1619314143,92,4.1178,15.1393,19.86,1.38
419,Norsup,57,VU,1619314143,75,-16.0667,167.3833,28.82,5.18
420,Khorramshahr,0,IR,1619314144,34,30.4397,48.1664,26.0,2.06
421,Zhangye,100,CN,1619314144,33,38.9342,100.4517,11.6,5.1
422,Ostrovnoy,100,RU,1619313977,99,68.0531,39.5131,1.31,2.35
423,Pascagoula,75,US,1619314144,83,30.3658,-88.5561,23.33,1.54
424,Kikwit,44,CD,1619314056,94,-5.041,18.8162,20.61,0.98
425,Abalak,100,RU,1619314144,56,58.1286,68.5944,4.95,3.05
426,Nabire,97,ID,1619313906,72,-3.3667,135.4833,28.32,0.73
427,Maniitsoq,98,GL,1619314145,68,65.4167,-52.9,3.3,2.41
428,Barcelos,40,PT,1619314145,88,41.5388,-8.6151,16.0,3.6
429,Champerico,75,GT,1619314145,78,14.3,-91.9167,28.0,2.06
430,Krasnogvardeyskiy,100,RU,1619314145,60,57.3793,62.3195,4.5,3.11
431,Suzun,9,RU,1619314146,72,53.7841,82.3116,3.22,0.96
432,Saint Andrews,75,US,1619314146,88,34.0454,-81.1293,18.33,3.09
433,Le Mars,1,US,1619314146,23,42.7942,-96.1656,9.0,2.48
434,Sars,100,RU,1619314146,97,56.5502,57.1366,3.44,3.6
435,Copiapó,0,CL,1619313567,72,-27.3667,-70.3333,14.0,2.57
436,Doha,71,QA,1619314043,65,25.2867,51.5333,27.0,1.54
437,Perth,0,AU,1619313849,63,-31.9333,115.8333,22.22,1.03
438,Beldānga,14,IN,1619314147,44,23.9333,88.25,28.93,2.74
439,Ixtapa,90,MX,1619314147,69,20.7,-105.2,27.0,4.63
440,Taltal,2,CL,1619313620,81,-25.4,-70.4833,17.22,1.39
441,Charter Township of Clinton,90,US,1619314147,100,42.587,-82.9199,11.11,3.6
442,Balod,1,IN,1619314147,20,20.73,81.2047,26.89,2.28
443,Nishihara,75,JP,1619314013,64,26.1842,127.7558,24.0,7.2
444,Ayan,2,RU,1619314148,53,56.45,138.1667,0.36,4.96
445,Chapais,1,CA,1619314139,75,49.7834,-74.8492,1.0,4.12
446,Xiangfan,100,CN,1619314148,87,32.0422,112.1448,13.51,3.89
447,Cochrane,90,CA,1619314148,64,51.1834,-114.4687,1.67,2.06
448,Gay,0,RU,1619314149,93,51.4666,58.4552,4.0,4.0
449,Santiago,0,CL,1619313866,59,-33.4569,-70.6483,20.0,2.06
450,Ghogha,99,IN,1619314018,54,21.6833,72.2833,29.2,2.98
451,Ust-Nera,96,RU,1619314123,84,64.5667,143.2,-10.03,2.38
452,Karratha,0,AU,1619313947,25,-20.7377,116.8463,28.75,7.47
453,Golden,75,US,1619313936,31,39.7555,-105.2211,16.67,5.14
454,Ulladulla,75,AU,1619314149,52,-35.35,150.4667,20.0,1.54
455,Qaqortoq,75,GL,1619314012,30,60.7167,-46.0333,12.0,14.92
456,Salalah,40,OM,1619313965,78,17.0151,54.0924,28.0,2.06
457,Campoverde,40,PE,1619314149,78,-8.4753,-74.8058,27.0,1.54
458,Neiafu,40,TO,1619313942,66,-18.65,-173.9833,30.0,1.54
459,Artyom,0,AZ,1619314150,93,40.4723,50.333,8.0,1.03
460,Padang,40,ID,1619313984,100,-0.9492,100.3543,24.0,1.03
461,Portland,100,US,1619313992,83,45.5234,-122.6762,11.11,1.79
462,Touros,0,BR,1619313961,94,-5.1989,-35.4608,24.0,1.03
463,Kiunga,100,PG,1619314111,94,-6.1219,141.2906,22.84,1.11
464,Palencia,100,ES,1619314150,78,42.4167,-4.5,13.33,2.24
465,Koutsouras,100,GR,1619314150,85,35.0339,25.9469,16.75,7.53
466,Jefferson City,1,US,1619314150,48,38.5767,-92.1735,17.0,2.06
467,San Cristobal,75,VE,1619314151,83,7.7669,-72.225,27.0,2.06
468,Phrae,100,TH,1619314151,79,18.0833,100.0,30.0,4.12
469,Caronport,85,CA,1619314151,14,50.4501,-105.8179,7.0,4.12
470,Bagdarin,100,RU,1619314022,33,54.4333,113.6,5.91,1.14
471,Khasan,0,RU,1619314151,30,42.4308,130.6434,11.77,6.52
472,Lucapa,100,AO,1619314152,94,-8.4192,20.7447,18.76,1.05
473,Abū Zabad,25,SD,1619314152,43,12.35,29.25,27.88,1.82
474,Sibolga,75,ID,1619314152,82,1.7427,98.7792,25.68,0.62
475,Mbarara,100,UG,1619314152,91,-0.608,30.65,16.12,1.16
476,Macheng,97,CN,1619314153,85,31.1783,115.0319,14.82,3.79
477,Shache,100,CN,1619314153,15,38.4167,77.2406,15.72,3.0
478,Nelson Bay,0,AU,1619313957,55,-32.7167,152.15,20.56,3.09
479,Olafsvik,100,IS,1619314111,92,64.8945,-23.7142,5.68,8.31
480,Santa Lucía,40,ES,1619314153,82,27.9117,-15.5407,18.89,2.57
481,Tignère,100,CM,1619314153,92,7.3667,12.65,18.95,0.52
482,Lüderitz,100,NA,1619313981,70,-26.6481,15.1594,18.19,2.44
483,Youhao,6,CN,1619314154,31,47.8667,128.8333,7.54,4.81
484,Zonguldak,100,TR,1619314154,98,41.25,31.8333,7.73,1.21
485,Khandyga,100,RU,1619314154,84,62.6667,135.6,-4.19,0.99
486,Antofagasta,0,CL,1619313936,67,-23.65,-70.4,16.0,1.03
487,Conceição da Barra,0,BR,1619314154,90,-18.5933,-39.7322,22.82,2.23
488,Papara,75,BR,1619314155,78,-3.9839,-38.7273,28.0,3.6
489,Vila Velha,75,BR,1619314155,88,-20.3297,-40.2925,23.0,1.54
490,Rochegda,7,RU,1619314155,86,62.8,43.25,5.42,3.41
491,Lozovik,8,RS,1619314155,84,44.4677,21.1007,5.56,0.72
492,Port Lincoln,0,AU,1619314156,57,-34.7333,135.8667,17.42,1.66
493,Bassano,100,CA,1619314156,31,50.7834,-112.4685,7.0,2.57
494,Dingle,45,PH,1619314156,63,10.9995,122.6711,29.7,0.45
495,Kerema,22,PG,1619314156,69,-7.9631,145.7785,29.4,1.89
496,Svetlaya,99,RU,1619314157,68,46.5389,138.3297,2.61,9.23
497,Nchelenge,100,ZM,1619314157,73,-9.3451,28.734,21.93,0.97
498,Salinópolis,100,BR,1619314157,84,-0.6136,-47.3561,26.15,2.6
499,Premià de Mar,100,ES,1619314158,70,41.4921,2.3652,14.44,0.45
500,Teya,100,RU,1619314158,88,60.3778,92.6267,2.19,1.24
501,Gazojak,36,TM,1619314158,36,41.1875,61.4036,15.16,5.82
502,Jumla,0,NP,1619314158,53,29.2747,82.1838,7.89,2.41
503,Reconquista,3,AR,1619314159,84,-29.15,-59.65,16.45,3.14
504,San Quintín,3,MX,1619314159,76,30.4833,-115.95,15.87,7.36
505,Ajdabiya,99,LY,1619314159,72,30.7554,20.2263,16.93,9.51
506,Bintulu,40,MY,1619314159,84,3.1667,113.0333,29.0,2.57
507,Linqiong,0,CN,1619314160,82,30.4159,103.4609,18.0,1.26
508,Krasnyy Chikoy,100,RU,1619314160,45,50.3643,108.7512,8.9,1.58
509,Tāybād,15,IR,1619314160,32,34.74,60.7756,17.42,5.3
510,Ketchikan,1,US,1619314161,29,55.3422,-131.6461,16.0,4.63
511,Paamiut,100,GL,1619314161,78,61.994,-49.6678,4.38,3.89
512,Kathu,20,TH,1619313927,83,7.9178,98.3332,31.11,4.12
513,Uarini,93,BR,1619314161,97,-2.99,-65.1083,23.33,0.74
514,Novo Aripuanã,34,BR,1619314161,94,-5.1206,-60.3797,24.07,0.85
515,Buraidah,0,SA,1619314162,28,26.326,43.975,23.0,1.51
516,Bukama,100,CD,1619314162,98,-9.2,25.85,20.23,0.93
517,Dārāb,86,IR,1619314162,42,28.7519,54.5444,21.18,2.02
518,Vostok,72,RU,1619314162,37,46.4856,135.8833,2.6,4.75
519,Port Moresby,20,PG,1619314163,74,-9.4431,147.1797,29.0,3.6
520,Rāzampeta,53,IN,1619314163,70,14.1833,79.1667,27.6,0.73
521,Colwyn Bay,0,GB,1619314163,84,53.2948,-3.7267,7.22,0.89
522,Robertsport,100,LR,1619314163,81,6.7533,-11.3686,27.34,2.03
523,Tanabe,40,JP,1619314164,68,33.7333,135.3667,20.0,4.63
524,Pyn U Lwin,20,MM,1619314164,62,22.0333,96.4667,32.0,3.6
525,Tingo María,8,PE,1619314164,98,-9.2895,-76.0088,21.02,0.96
526,Ciudad Bolivar,57,VE,1619314164,57,8.1222,-63.5497,29.23,8.27
527,Souris,75,CA,1619314165,26,49.6172,-100.2612,7.22,2.06
528,Meïganga,100,CM,1619314165,96,6.5167,14.3,19.03,1.22
529,Sørland,86,NO,1619314010,58,67.667,12.6934,2.49,8.73
530,Kappeln,7,DE,1619314165,75,54.6612,9.9313,2.0,2.57
531,Khovd,92,MN,1619313992,27,48.0056,91.6419,-2.55,3.79
532,Waddān,0,LY,1619313997,74,29.1614,16.139,15.16,3.66
533,Guane,100,CU,1619314166,82,22.2025,-84.0875,24.79,2.75
534,Cairns,75,AU,1619313699,94,-16.9167,145.7667,25.0,2.57
535,Gaogou,100,CN,1619314166,75,34.0175,119.1886,14.37,4.74
536,Luan,0,CH,1619314166,62,46.3592,6.9759,10.0,0.51
537,Mikkeli,0,FI,1619314166,93,61.6886,27.2723,0.0,2.06
538,Qasigiannguit,0,GL,1619314167,46,68.8193,-51.1922,8.0,11.83
539,Richards Bay,27,ZA,1619313939,87,-28.783,32.0377,19.79,4.73
540,Deputatsky,100,RU,1619313943,84,69.3,139.9,-7.3,3.08
541,St. George's,20,GD,1619313962,78,12.0564,-61.7485,27.0,6.69
542,Arrondissement de Vesoul,0,FR,1619314167,70,47.5833,5.8333,8.89,1.03
543,Tottori-shi,75,JP,1619314167,67,35.5,134.2333,16.0,3.6
544,Half Moon Bay,90,US,1619314064,87,37.4636,-122.4286,14.44,4.12
545,Abhā,0,SA,1619314167,72,18.2164,42.5053,16.0,4.08
546,Chervona Sloboda,0,UA,1619314168,75,49.3789,32.1464,2.46,3.82
547,Chara,100,RU,1619313935,67,56.9064,118.2631,-1.6,0.37
548,Banda Aceh,100,ID,1619313958,68,5.5577,95.3222,27.54,3.54
549,Esim,100,GH,1619314001,86,4.8699,-2.2405,26.65,3.77
550,Matara,26,LK,1619314168,88,5.9485,80.5353,25.01,1.32
551,Raudeberg,31,NO,1619314168,80,61.9875,5.1352,2.78,5.39
552,Porto Santo,20,PT,1619314168,77,33.072,-16.3415,17.0,5.66
553,Okhotsk,3,RU,1619314009,57,59.3833,143.3,-2.51,7.22
554,Najrān,75,SA,1619313997,27,17.4924,44.1277,26.0,1.84
555,Riberalta,35,BO,1619314169,93,-10.9833,-66.1,23.68,0.94
